"rent, rub/month",full_address,city,"price_per_sqm, rub/month","square, m^2",type,url,OSM_address,address_info,district,lat,lon
1500000,"Пречистенка, 19/11 ст2",Москва,13636,110,Универсальное помещение,https://msk.n1.ru/view/114210381/?open_card_kn,"Пречистенка, 19/11 ст2, Москва, Россия","{'district': 'район Хамовники', 'lat': 55.7430154, 'lon': 37.5969667}",район Хамовники,55.7430154,37.5969667
1197919,"Таежная, 1",Москва,1917,625,Универсальное помещение,https://msk.n1.ru/view/115999047/?open_card_kn,"Таежная, 1, Москва, Россия","{'district': 'Лосиноостровский район', 'lat': 55.8811065, 'lon': 37.7007356}",Лосиноостровский район,55.8811065,37.7007356
274809,"Дмитровка Б., 32 ст4",Москва,4084,67,Универсальное помещение,https://msk.n1.ru/view/116261376/?open_card_kn,"Дмитровка Б., 32 ст4, Москва, Россия","{'district': 'Район не найден', 'lat': 55.1728895, 'lon': 37.1228243}",Район не найден,55.1728895,37.1228243
386458,"Шумкина, 20 ст1",Москва,1459,265,Универсальное помещение,https://msk.n1.ru/view/116011103/?open_card_kn,"Шумкина, 20 ст1, Москва, Россия","{'district': 'район Сокольники', 'lat': 55.7894219, 'lon': 37.6669807}",район Сокольники,55.7894219,37.6669807
68125,"Шумкина, 20 ст1",Москва,2084,32,Универсальное помещение,https://msk.n1.ru/view/115777113/?open_card_kn,"Шумкина, 20 ст1, Москва, Россия","{'district': 'район Сокольники', 'lat': 55.7894219, 'lon': 37.6669807}",район Сокольники,55.7894219,37.6669807
320100,"Павелецкий 2-й проезд, 5 ст1",Москва,3000,106,Универсальное помещение,https://msk.n1.ru/view/115502574/?open_card_kn,"Павелецкий 2-й проезд, 5 ст1, Москва, Россия","{'district': 'Даниловский район', 'lat': 55.7132116, 'lon': 37.6434932}",Даниловский район,55.7132116,37.6434932
293601,"Мира проспект, 102 ст17",Москва,2667,110,Универсальное помещение,https://msk.n1.ru/view/114858057/?open_card_kn,"Мира проспект, 102 ст17, Москва, Россия","{'district': 'Алексеевский район', 'lat': 55.8224761, 'lon': 37.6434204}",Алексеевский район,55.8224761,37.6434204
684000,"Варшавское шоссе, 170г",Москва,1200,570,Универсальное помещение,https://msk.n1.ru/view/114751732/?open_card_kn,"Варшавское шоссе, 170г, Москва, Россия","{'district': 'район Чертаново Южное', 'lat': 55.579517, 'lon': 37.5917295}",район Чертаново Южное,55.579517,37.5917295
239500,"Дмитровское шоссе, 81",Москва,2661,90,Универсальное помещение,https://msk.n1.ru/view/114113806/?open_card_kn,"Дмитровское шоссе, 81, Москва, Россия","{'district': 'район Западное Дегунино', 'lat': 55.8615522, 'lon': 37.5499825}",район Западное Дегунино,55.8615522,37.5499825
262800,"Мустая Карима, 12",Москва,3000,87,Универсальное помещение,https://msk.n1.ru/view/113865903/?open_card_kn,"Мустая Карима, 12, Москва, Россия","{'district': 'Даниловский район', 'lat': 55.6882003, 'lon': 37.6595221}",Даниловский район,55.6882003,37.6595221
75400,"Старопетровский проезд, 9а",Москва,1999,37,Универсальное помещение,https://msk.n1.ru/view/112811168/?open_card_kn,"Старопетровский проезд, 9а, Москва, Россия","{'district': 'Войковский район', 'lat': 55.8242365, 'lon': 37.5010584}",Войковский район,55.8242365,37.5010584
800000,"Масловка Верхн., 20 ст1",Москва,2817,283,Универсальное помещение,https://msk.n1.ru/view/111240795/?open_card_kn,"Масловка Верхн., 20 ст1, Москва, Россия","{'district': 'Адрес не найден', 'lat': None, 'lon': None}",Адрес не найден,,
75600,"Вернадского проспект, 105",Москва,2000,37,Универсальное помещение,https://msk.n1.ru/view/93156451/?open_card_kn,"Вернадского проспект, 105, Москва, Россия","{'district': 'Тропарёво-Никулино', 'lat': 55.6630568, 'lon': 37.4857567}",Тропарёво-Никулино,55.6630568,37.4857567
276000,"Конструктора Гуськова, 8 ст10",Москва,1380,200,Универсальное помещение,https://msk.n1.ru/view/114562893/?open_card_kn,"Конструктора Гуськова, 8 ст10, Москва, Россия","{'district': 'район Силино', 'lat': 56.0148953, 'lon': 37.1919892}",район Силино,56.0148953,37.1919892
358800,"проезд улицашоссепр-дпр-д-й, 4 ст4",Москва,1560,230,Универсальное помещение,https://msk.n1.ru/view/114562535/?open_card_kn,"проезд улицашоссепр-дпр-д-й, 4 ст4, Москва, Россия","{'district': 'Адрес не найден', 'lat': None, 'lon': None}",Адрес не найден,,
106334,"Малая Семеновская, 9 ст3",Москва,1667,63,Универсальное помещение,https://msk.n1.ru/view/114947525/?open_card_kn,"Малая Семеновская, 9 ст3, Москва, Россия","{'district': 'район Соколиная Гора', 'lat': 55.7847545, 'lon': 37.7094227}",район Соколиная Гора,55.7847545,37.7094227
644625,"Братьев Весниных бульвар, 1",Москва,3750,171,Универсальное помещение,https://msk.n1.ru/view/77584667/?open_card_kn,"Братьев Весниных бульвар, 1, Москва, Россия","{'district': 'Даниловский район', 'lat': 55.6981405, 'lon': 37.6400943}",Даниловский район,55.6981405,37.6400943
6235000,"Варшавское шоссе, 170г",Москва,725,8600,Универсальное помещение,https://msk.n1.ru/view/114944913/?open_card_kn,"Варшавское шоссе, 170г, Москва, Россия","{'district': 'район Чертаново Южное', 'lat': 55.579517, 'lon': 37.5917295}",район Чертаново Южное,55.579517,37.5917295
87600,"проезд улицашоссепр-дпр-д-й, 4 ст4",Москва,2400,36,Универсальное помещение,https://msk.n1.ru/view/114547323/?open_card_kn,"проезд улицашоссепр-дпр-д-й, 4 ст4, Москва, Россия","{'district': 'Адрес не найден', 'lat': None, 'lon': None}",Адрес не найден,,
2073750,"Причальный проезд, 10 корп. 2",Москва,2916,711,Универсальное помещение,https://msk.n1.ru/view/115261051/?open_card_kn,"Причальный проезд, 10 корп. 2, Москва, Россия","{'district': 'район Хорошёво-Мнёвники', 'lat': 55.7601051, 'lon': 37.5183196}",район Хорошёво-Мнёвники,55.7601051,37.5183196
175350,"Летчика Грицевца (п Внуковское), 5",Москва,1500,116,Универсальное помещение,https://msk.n1.ru/view/113087033/?open_card_kn,"Летчика Грицевца (п Внуковское), 5, Москва, Россия","{'district': 'Адрес не найден', 'lat': None, 'lon': None}",Адрес не найден,,
596100,"Летчика Ульянина (п Внуковское), 4",Москва,2500,238,Универсальное помещение,https://msk.n1.ru/view/113803399/?open_card_kn,"Летчика Ульянина (п Внуковское), 4, Москва, Россия","{'district': 'Адрес не найден', 'lat': None, 'lon': None}",Адрес не найден,,
78000,"Электродная, 2 ст3",Москва,1425,54,Универсальное помещение,https://msk.n1.ru/view/113074067/?open_card_kn,"Электродная, 2 ст3, Москва, Россия","{'district': 'район Перово', 'lat': 55.7520018, 'lon': 37.7543678}",район Перово,55.7520018,37.7543678
1664000,"Хорошевский 2-й проезд, 7 ст17",Москва,2000,832,Универсальное помещение,https://msk.n1.ru/view/116256089/?open_card_kn,"Хорошевский 2-й проезд, 7 ст17, Москва, Россия","{'district': 'Адрес не найден', 'lat': None, 'lon': None}",Адрес не найден,,
11999845,"Нежинская, 13а",Москва,4648,2582,Универсальное помещение,https://msk.n1.ru/view/113790877/?open_card_kn,"Нежинская, 13а, Москва, Россия","{'district': 'район Очаково-Матвеевское', 'lat': 55.7079702, 'lon': 37.4684119}",район Очаково-Матвеевское,55.7079702,37.4684119
1500000,"Пречистенка, 19/11 ст2",Москва,13636,110,Универсальное помещение,https://msk.n1.ru/view/114181056/?open_card_kn,"Пречистенка, 19/11 ст2, Москва, Россия","{'district': 'район Хамовники', 'lat': 55.7430154, 'lon': 37.5969667}",район Хамовники,55.7430154,37.5969667
260000,"Амурская, 2а корп. 4",Москва,3023,86,Универсальное помещение,https://msk.n1.ru/view/116216006/?open_card_kn,"Амурская, 2а корп. 4, Москва, Россия","{'district': 'район Гольяново', 'lat': 55.8058702, 'lon': 37.753115}",район Гольяново,55.8058702,37.753115
499000,"Сеченовский переулок, 5",Москва,4339,115,Универсальное помещение,https://msk.n1.ru/view/115918879/?open_card_kn,"Сеченовский переулок, 5, Москва, Россия","{'district': 'район Хамовники', 'lat': 55.7408354, 'lon': 37.5958793}",район Хамовники,55.7408354,37.5958793
5087000,"Почтовая Б., 36 ст1",Москва,2499,2035,Универсальное помещение,https://msk.n1.ru/view/115918605/?open_card_kn,"Почтовая Б., 36 ст1, Москва, Россия","{'district': 'Бауманка', 'lat': 55.775998, 'lon': 37.69699}",Бауманка,55.775998,37.69699
35000,"Уральская, 1а",Москва,8333,4,Универсальное помещение,https://msk.n1.ru/view/113036475/?open_card_kn,"Уральская, 1а, Москва, Россия","{'district': 'район Гольяново', 'lat': 55.8106429, 'lon': 37.7978323}",район Гольяново,55.8106429,37.7978323
79990,"2-й Ходынский проезд, 5 ст6",Москва,2051,39,Универсальное помещение,https://msk.n1.ru/view/115533385/?open_card_kn,"2-й Ходынский проезд, 5 ст6, Москва, Россия","{'district': 'Хорошёвский район', 'lat': 55.7835426, 'lon': 37.5299402}",Хорошёвский район,55.7835426,37.5299402
449928,"Конструктора Гуськова, 14 ст2",Москва,1080,416,Универсальное помещение,https://msk.n1.ru/view/111116086/?open_card_kn,"Конструктора Гуськова, 14 ст2, Москва, Россия","{'district': 'район Силино', 'lat': 56.0148953, 'lon': 37.1919892}",район Силино,56.0148953,37.1919892
103680,"проезд улицашоссепр-дпр-д-й, 4 ст4",Москва,1200,86,Универсальное помещение,https://msk.n1.ru/view/114456812/?open_card_kn,"проезд улицашоссепр-дпр-д-й, 4 ст4, Москва, Россия","{'district': 'Адрес не найден', 'lat': None, 'lon': None}",Адрес не найден,,
202080,"проезд улицашоссепр-дпр-д-й, 4 ст4",Москва,1200,168,Универсальное помещение,https://msk.n1.ru/view/114456792/?open_card_kn,"проезд улицашоссепр-дпр-д-й, 4 ст4, Москва, Россия","{'district': 'Адрес не найден', 'lat': None, 'lon': None}",Адрес не найден,,
290000,"Братьев Весниных бульвар, 1",Москва,5025,57,Универсальное помещение,https://msk.n1.ru/view/107332313/?open_card_kn,"Братьев Весниных бульвар, 1, Москва, Россия","{'district': 'Даниловский район', 'lat': 55.6981405, 'lon': 37.6400943}",Даниловский район,55.6981405,37.6400943
13500000,"Конструктора Гуськова, 14 ст2",Москва,1500,9000,Универсальное помещение,https://msk.n1.ru/view/116194719/?open_card_kn,"Конструктора Гуськова, 14 ст2, Москва, Россия","{'district': 'район Силино', 'lat': 56.0148953, 'lon': 37.1919892}",район Силино,56.0148953,37.1919892
520000,"Озерная, 1 корп. 3",Москва,9027,57,Универсальное помещение,https://msk.n1.ru/view/116191642/?open_card_kn,"Озерная, 1 корп. 3, Москва, Россия","{'district': 'Филимонковский район', 'lat': 55.5080336, 'lon': 37.2205281}",Филимонковский район,55.5080336,37.2205281
110000,"Сущевский Вал, 3/5а",Москва,625,176,Универсальное помещение,https://msk.n1.ru/view/109795581/?open_card_kn,"Сущевский Вал, 3/5а, Москва, Россия","{'district': 'район Марьина Роща', 'lat': 55.7926233, 'lon': 37.590741}",район Марьина Роща,55.7926233,37.590741
1184400,"проезд улицашоссепр-дпр-д-й, 4 ст5",Москва,1680,705,Универсальное помещение,https://msk.n1.ru/view/115515578/?open_card_kn,"проезд улицашоссепр-дпр-д-й, 4 ст5, Москва, Россия","{'district': 'Адрес не найден', 'lat': None, 'lon': None}",Адрес не найден,,
2115832,"Ермакова Роща, 1 ст1",Москва,3907,541,Универсальное помещение,https://msk.n1.ru/view/115502566/?open_card_kn,"Ермакова Роща, 1 ст1, Москва, Россия","{'district': 'Пресненский район', 'lat': 55.7565423, 'lon': 37.5292876}",Пресненский район,55.7565423,37.5292876
325326,"Краснопролетарская, 16 ст2",Москва,2917,111,Универсальное помещение,https://msk.n1.ru/view/116171079/?open_card_kn,"Краснопролетарская, 16 ст2, Москва, Россия","{'district': 'Тверской район', 'lat': 55.778899, 'lon': 37.6057019}",Тверской район,55.778899,37.6057019
230000,"Электродная, 2 ст3",Москва,1533,150,Универсальное помещение,https://msk.n1.ru/view/115494643/?open_card_kn,"Электродная, 2 ст3, Москва, Россия","{'district': 'район Перово', 'lat': 55.7520018, 'lon': 37.7543678}",район Перово,55.7520018,37.7543678
30000,"Монтажная, 9 ст1",Москва,1442,20,Универсальное помещение,https://msk.n1.ru/view/114417463/?open_card_kn,"Монтажная, 9 ст1, Москва, Россия","{'district': 'район Метрогородок', 'lat': 55.8231115, 'lon': 37.760137}",район Метрогородок,55.8231115,37.760137
786040,"Бабаевская, 4 ст1",Москва,1459,539,Универсальное помещение,https://msk.n1.ru/view/112941815/?open_card_kn,"Бабаевская, 4 ст1, Москва, Россия","{'district': 'район Сокольники', 'lat': 55.789127, 'lon': 37.6904881}",район Сокольники,55.789127,37.6904881
336000,"проезд улицашоссепр-дпр-д-й, 4 ст2",Москва,1680,200,Универсальное помещение,https://msk.n1.ru/view/113336065/?open_card_kn,"проезд улицашоссепр-дпр-д-й, 4 ст2, Москва, Россия","{'district': 'Адрес не найден', 'lat': None, 'lon': None}",Адрес не найден,,
260000,"Электродная, 2 ст37",Москва,1625,160,Универсальное помещение,https://msk.n1.ru/view/115819581/?open_card_kn,"Электродная, 2 ст37, Москва, Россия","{'district': 'район Перово', 'lat': 55.7520018, 'lon': 37.7543678}",район Перово,55.7520018,37.7543678
3900000,"Конструктора Гуськова, 14 ст2",Москва,1560,2500,Универсальное помещение,https://msk.n1.ru/view/116147478/?open_card_kn,"Конструктора Гуськова, 14 ст2, Москва, Россия","{'district': 'район Силино', 'lat': 56.0148953, 'lon': 37.1919892}",район Силино,56.0148953,37.1919892
150000,"Шелепихинская набережная, 42 корп. 2",Москва,3000,50,Универсальное помещение,https://msk.n1.ru/view/116146433/?open_card_kn,"Шелепихинская набережная, 42 корп. 2, Москва, Россия","{'district': 'Пресненский район', 'lat': 55.7454505, 'lon': 37.5321667}",Пресненский район,55.7454505,37.5321667
1800000,"Авиаконструктора Миля, 26",Москва,1978,910,Универсальное помещение,https://msk.n1.ru/view/116142266/?open_card_kn,"Авиаконструктора Миля, 26, Москва, Россия","{'district': 'район Выхино-Жулебино', 'lat': 55.6774826, 'lon': 37.858263}",район Выхино-Жулебино,55.6774826,37.858263
3744000,"Конструктора Гуськова, 14 ст2",Москва,1560,2400,Универсальное помещение,https://msk.n1.ru/view/116137545/?open_card_kn,"Конструктора Гуськова, 14 ст2, Москва, Россия","{'district': 'район Силино', 'lat': 56.0148953, 'lon': 37.1919892}",район Силино,56.0148953,37.1919892
1200000,"Вернадского проспект, 12д",Москва,2000,600,Универсальное помещение,https://msk.n1.ru/view/116134371/?open_card_kn,"Вернадского проспект, 12д, Москва, Россия","{'district': 'район Раменки', 'lat': 55.6863617, 'lon': 37.5117203}",район Раменки,55.6863617,37.5117203
47712,"Конструктора Гуськова, 8 ст10",Москва,960,49,Универсальное помещение,https://msk.n1.ru/view/111865179/?open_card_kn,"Конструктора Гуськова, 8 ст10, Москва, Россия","{'district': 'район Силино', 'lat': 56.0148953, 'lon': 37.1919892}",район Силино,56.0148953,37.1919892
5760000,"Конструктора Гуськова, 8 ст10",Москва,1440,4000,Универсальное помещение,https://msk.n1.ru/view/111865130/?open_card_kn,"Конструктора Гуськова, 8 ст10, Москва, Россия","{'district': 'район Силино', 'lat': 56.0148953, 'lon': 37.1919892}",район Силино,56.0148953,37.1919892
230000,"Кольская, 8 корп. 2",Москва,2473,93,Универсальное помещение,https://msk.n1.ru/view/113710405/?open_card_kn,"Кольская, 8 корп. 2, Москва, Россия","{'district': 'район Свиблово', 'lat': 55.8639644, 'lon': 37.64304}",район Свиблово,55.8639644,37.64304
4097925,"Берсеневская набережная, 8 ст1",Москва,3249,1260,Универсальное помещение,https://msk.n1.ru/view/115813194/?open_card_kn,"Берсеневская набережная, 8 ст1, Москва, Россия","{'district': 'район Якиманка', 'lat': 55.7456356, 'lon': 37.6118184}",район Якиманка,55.7456356,37.6118184
250000,"Тверская, 20/1 ст1",Москва,4716,53,Универсальное помещение,https://msk.n1.ru/view/115424860/?open_card_kn,"Тверская, 20/1 ст1, Москва, Россия","{'district': 'Адрес не найден', 'lat': None, 'lon': None}",Адрес не найден,,
981520,"Калужская площадь, 1 корп. 2",Москва,1574,623,Универсальное помещение,https://msk.n1.ru/view/115413600/?open_card_kn,"Калужская площадь, 1 корп. 2, Москва, Россия","{'district': 'район Якиманка', 'lat': 55.7291179, 'lon': 37.6119237}",район Якиманка,55.7291179,37.6119237
440000,"Звенигородское шоссе, 3а ст1",Москва,6043,72,Универсальное помещение,https://msk.n1.ru/view/115744308/?open_card_kn,"Звенигородское шоссе, 3а ст1, Москва, Россия","{'district': 'район Хорошёво-Мнёвники', 'lat': 55.7717237, 'lon': 37.4970071}",район Хорошёво-Мнёвники,55.7717237,37.4970071
892500,"Байкальская, 35а",Москва,1050,850,Универсальное помещение,https://msk.n1.ru/view/116073389/?open_card_kn,"Байкальская, 35а, Москва, Россия","{'district': 'район Гольяново', 'lat': 55.8182755, 'lon': 37.8129957}",район Гольяново,55.8182755,37.8129957
596100,"Летчика Ульянина (п Внуковское), 4",Москва,2500,238,Универсальное помещение,https://msk.n1.ru/view/115719360/?open_card_kn,"Летчика Ульянина (п Внуковское), 4, Москва, Россия","{'district': 'Адрес не найден', 'lat': None, 'lon': None}",Адрес не найден,,
1020800,"Пяловская, 1",Москва,1100,928,Универсальное помещение,https://msk.n1.ru/view/114662089/?open_card_kn,"Пяловская, 1, Москва, Россия","{'district': 'район Западное Дегунино', 'lat': 55.8621739, 'lon': 37.5362182}",район Западное Дегунино,55.8621739,37.5362182
1000000,"Новокузнецкая, 4 ст4",Москва,2666,375,Универсальное помещение,https://msk.n1.ru/view/114298254/?open_card_kn,"Новокузнецкая, 4 ст4, Москва, Россия","{'district': 'Адрес не найден', 'lat': None, 'lon': None}",Адрес не найден,,
401856,"Милютинский переулок, 5 ст2",Москва,2300,174,Универсальное помещение,https://msk.n1.ru/view/116065985/?open_card_kn,"Милютинский переулок, 5 ст2, Москва, Россия","{'district': 'Красносельский район', 'lat': 55.7630413, 'lon': 37.6319057}",Красносельский район,55.7630413,37.6319057
928560,"Красностуденческий проезд, 2б",Москва,1200,773,Универсальное помещение,https://msk.n1.ru/view/116064696/?open_card_kn,"Красностуденческий проезд, 2б, Москва, Россия","{'district': 'Тимирязевский район', 'lat': 55.8275822, 'lon': 37.5673911}",Тимирязевский район,55.8275822,37.5673911
91440,"Футбольная (п Десеновское), 17",Москва,1800,50,Универсальное помещение,https://msk.n1.ru/view/115704618/?open_card_kn,"Футбольная (п Десеновское), 17, Москва, Россия","{'district': 'Адрес не найден', 'lat': None, 'lon': None}",Адрес не найден,,
418958,"Ленинградский проспект, 80 корп. 17",Москва,2084,201,Универсальное помещение,https://msk.n1.ru/view/116059435/?open_card_kn,"Ленинградский проспект, 80 корп. 17, Москва, Россия","{'district': 'район Аэропорт', 'lat': 55.7913349, 'lon': 37.5523324}",район Аэропорт,55.7913349,37.5523324
1584000,"Конструктора Гуськова, 14 ст2",Москва,1320,1200,Универсальное помещение,https://msk.n1.ru/view/99733172/?open_card_kn,"Конструктора Гуськова, 14 ст2, Москва, Россия","{'district': 'район Силино', 'lat': 56.0148953, 'lon': 37.1919892}",район Силино,56.0148953,37.1919892
2713954,"Сергия Радонежского, 13 ст1",Москва,2084,1302,Универсальное помещение,https://msk.n1.ru/view/112385730/?open_card_kn,"Сергия Радонежского, 13 ст1, Москва, Россия","{'district': 'Таганский район', 'lat': 55.7467051, 'lon': 37.6722887}",Таганский район,55.7467051,37.6722887
350000,"Земляной Вал, 32",Москва,3102,112,Универсальное помещение,https://msk.n1.ru/view/109564405/?open_card_kn,"Земляной Вал, 32, Москва, Россия","{'district': 'Басманный район', 'lat': 55.7570781, 'lon': 37.657127}",Басманный район,55.7570781,37.657127
127270,"Ленинградское шоссе, 346",Москва,1625,78,Универсальное помещение,https://msk.n1.ru/view/112754257/?open_card_kn,"Ленинградское шоссе, 346, Москва, Россия","{'district': 'Молжаниновский район', 'lat': 55.9477303, 'lon': 37.355673}",Молжаниновский район,55.9477303,37.355673
122400,"проезд улицашоссепр-дпр-д-й, 4 ст4",Москва,1800,68,Универсальное помещение,https://msk.n1.ru/view/112739285/?open_card_kn,"проезд улицашоссепр-дпр-д-й, 4 ст4, Москва, Россия","{'district': 'Адрес не найден', 'lat': None, 'lon': None}",Адрес не найден,,
5450007,"Автозаводская, 14",Москва,2667,2043,Универсальное помещение,https://msk.n1.ru/view/115653957/?open_card_kn,"Автозаводская, 14, Москва, Россия","{'district': 'Даниловский район', 'lat': 55.7039831, 'lon': 37.6476725}",Даниловский район,55.7039831,37.6476725
290000,"Энтузиастов шоссе, 31 ст17",Москва,2084,139,Универсальное помещение,https://msk.n1.ru/view/115652089/?open_card_kn,"Энтузиастов шоссе, 31 ст17, Москва, Россия","{'district': 'район Перово', 'lat': 55.7564952, 'lon': 37.7428422}",район Перово,55.7564952,37.7428422
249600,"Нежинская, 17 корп. 4",Москва,1000,249,Универсальное помещение,https://msk.n1.ru/view/110586095/?open_card_kn,"Нежинская, 17 корп. 4, Москва, Россия","{'district': 'район Очаково-Матвеевское', 'lat': 55.7073597, 'lon': 37.4576918}",район Очаково-Матвеевское,55.7073597,37.4576918
91094,"Бажова, 16",Москва,1198,76,Универсальное помещение,https://msk.n1.ru/view/108536319/?open_card_kn,"Бажова, 16, Москва, Россия","{'district': 'район Ростокино', 'lat': 55.8342871, 'lon': 37.6626715}",район Ростокино,55.8342871,37.6626715
52000,"Главмосстроя, 22 корп. 1",Москва,2600,20,Универсальное помещение,https://msk.n1.ru/view/109321463/?open_card_kn,"Главмосстроя, 22 корп. 1, Москва, Россия","{'district': 'район Солнцево', 'lat': 55.6503041, 'lon': 37.4097589}",район Солнцево,55.6503041,37.4097589
600000,"Долгоруковская, 40",Москва,21126,28,Универсальное помещение,https://msk.n1.ru/view/116331986/?open_card_kn,"Долгоруковская, 40, Москва, Россия","{'district': 'Тверской район', 'lat': 55.7785132, 'lon': 37.6021162}",Тверской район,55.7785132,37.6021162
448500,"Карачаровская 1-я, 8",Москва,1500,299,Универсальное помещение,https://msk.n1.ru/view/116000330/?open_card_kn,"Карачаровская 1-я, 8, Москва, Россия","{'district': 'Нижегородский район', 'lat': 55.7345386, 'lon': 37.7495353}",Нижегородский район,55.7345386,37.7495353
65000,"Академика Анохина, 6 корп. 2",Москва,1444,45,Универсальное помещение,https://msk.n1.ru/view/116331897/?open_card_kn,"Академика Анохина, 6 корп. 2, Москва, Россия","{'district': 'Тропарёво-Никулино', 'lat': 55.6438045, 'lon': 37.4671167}",Тропарёво-Никулино,55.6438045,37.4671167
55000,"Смирновская, 2 ст1",Москва,3313,16,Универсальное помещение,https://msk.n1.ru/view/116331873/?open_card_kn,"Смирновская, 2 ст1, Москва, Россия","{'district': 'Нижегородский район', 'lat': 55.7366034, 'lon': 37.7096849}",Нижегородский район,55.7366034,37.7096849
270000,"Кленовый бульвар, 2",Москва,3000,90,Универсальное помещение,https://msk.n1.ru/view/116331872/?open_card_kn,"Кленовый бульвар, 2, Москва, Россия","{'district': 'район Нагатинский Затон', 'lat': 55.6792246, 'lon': 37.6754126}",район Нагатинский Затон,55.6792246,37.6754126
120000,"Духовской переулок, 17 ст6",Москва,2142,56,Универсальное помещение,https://msk.n1.ru/view/115999703/?open_card_kn,"Духовской переулок, 17 ст6, Москва, Россия","{'district': 'Канатчиково', 'lat': 55.7048129, 'lon': 37.6145426}",Канатчиково,55.7048129,37.6145426
599550,"Коломенская, 17 корп. 3",Москва,3499,171,Универсальное помещение,https://msk.n1.ru/view/115999608/?open_card_kn,"Коломенская, 17 корп. 3, Москва, Россия","{'district': 'Коломенка', 'lat': 55.6753933, 'lon': 37.6839827}",Коломенка,55.6753933,37.6839827
900000,"Мневники Нижн., 20",Москва,4324,208,Универсальное помещение,https://msk.n1.ru/view/114211769/?open_card_kn,"Мневники Нижн., 20, Москва, Россия","{'district': 'Адрес не найден', 'lat': None, 'lon': None}",Адрес не найден,,
3500000,"Оружейный переулок, 15а",Москва,2058,1700,Универсальное помещение,https://msk.n1.ru/view/114211377/?open_card_kn,"Оружейный переулок, 15а, Москва, Россия","{'district': 'Тверской район', 'lat': 55.7722106, 'lon': 37.6005412}",Тверской район,55.7722106,37.6005412
349999,"Рочдельская, 11/5",Москва,2078,168,Универсальное помещение,https://msk.n1.ru/view/114211295/?open_card_kn,"Рочдельская, 11/5, Москва, Россия","{'district': 'Пресненский район', 'lat': 55.756196, 'lon': 37.5708632}",Пресненский район,55.756196,37.5708632
1699988,"Кадашевский 3-й переулок, 6 ст2",Москва,3777,450,Универсальное помещение,https://msk.n1.ru/view/114211278/?open_card_kn,"Кадашевский 3-й переулок, 6 ст2, Москва, Россия","{'district': 'район Якиманка', 'lat': 55.7421974, 'lon': 37.6237431}",район Якиманка,55.7421974,37.6237431
350000,"Оружейный переулок, 15а",Москва,5384,65,Универсальное помещение,https://msk.n1.ru/view/114211266/?open_card_kn,"Оружейный переулок, 15а, Москва, Россия","{'district': 'Тверской район', 'lat': 55.7722106, 'lon': 37.6005412}",Тверской район,55.7722106,37.6005412
150000,"Автозаводская, 14",Москва,6607,22,Универсальное помещение,https://msk.n1.ru/view/114210423/?open_card_kn,"Автозаводская, 14, Москва, Россия","{'district': 'Даниловский район', 'lat': 55.7039831, 'lon': 37.6476725}",Даниловский район,55.7039831,37.6476725
415000,"Нововаганьковский переулок, 3 ст1",Москва,3018,137,Универсальное помещение,https://msk.n1.ru/view/114210386/?open_card_kn,"Нововаганьковский переулок, 3 ст1, Москва, Россия","{'district': 'Пресненский район', 'lat': 55.758708, 'lon': 37.568161}",Пресненский район,55.758708,37.568161
1492200,"Рогожский Вал, 5 ст9",Москва,9000,165,Универсальное помещение,https://msk.n1.ru/view/114210017/?open_card_kn,"Рогожский Вал, 5 ст9, Москва, Россия","{'district': 'Таганский район', 'lat': 55.7406191, 'lon': 37.674576}",Таганский район,55.7406191,37.674576
250000,"Звездный бульвар, 10 ст1",Москва,1470,170,Универсальное помещение,https://msk.n1.ru/view/114209981/?open_card_kn,"Звездный бульвар, 10 ст1, Москва, Россия","{'district': 'Останкинский район', 'lat': 55.8128692, 'lon': 37.6199627}",Останкинский район,55.8128692,37.6199627
90000,"Ленинградский проспект, 33 корп. 5",Москва,5000,18,Универсальное помещение,https://msk.n1.ru/view/114209959/?open_card_kn,"Ленинградский проспект, 33 корп. 5, Москва, Россия","{'district': 'район Аэропорт', 'lat': 55.7929202, 'lon': 37.548719}",район Аэропорт,55.7929202,37.548719
45000,"Семеновская Б., 10 ст13",Москва,1595,28,Универсальное помещение,https://msk.n1.ru/view/114209952/?open_card_kn,"Семеновская Б., 10 ст13, Москва, Россия","{'district': 'район Соколиная Гора', 'lat': 55.7812139, 'lon': 37.7061209}",район Соколиная Гора,55.7812139,37.7061209
2000000,"Мневники Нижн., 16 корп. 2",Москва,7153,279,Универсальное помещение,https://msk.n1.ru/view/114209503/?open_card_kn,"Мневники Нижн., 16 корп. 2, Москва, Россия","{'district': 'Адрес не найден', 'lat': None, 'lon': None}",Адрес не найден,,
149000,"Корабельная, 5а",Москва,4966,30,Универсальное помещение,https://msk.n1.ru/view/114577745/?open_card_kn,"Корабельная, 5а, Москва, Россия","{'district': 'район Нагатинский Затон', 'lat': 55.6855411, 'lon': 37.6997218}",район Нагатинский Затон,55.6855411,37.6997218
390000,"Корабельная, 5а",Москва,4148,94,Универсальное помещение,https://msk.n1.ru/view/114577620/?open_card_kn,"Корабельная, 5а, Москва, Россия","{'district': 'район Нагатинский Затон', 'lat': 55.6855411, 'lon': 37.6997218}",район Нагатинский Затон,55.6855411,37.6997218
2999937,"Крузенштерна, 6",Москва,2345,1279,Универсальное помещение,https://msk.n1.ru/view/114209415/?open_card_kn,"Крузенштерна, 6, Москва, Россия","{'district': 'район Лефортово', 'lat': 55.7507176, 'lon': 37.6906509}",район Лефортово,55.7507176,37.6906509
500000,"Крузенштерна, 2",Москва,3955,126,Универсальное помещение,https://msk.n1.ru/view/115999045/?open_card_kn,"Крузенштерна, 2, Москва, Россия","{'district': 'район Лефортово', 'lat': 55.7501985, 'lon': 37.687427}",район Лефортово,55.7501985,37.687427
3000000,"Грузинская Б., 12 ст2",Москва,3092,970,Универсальное помещение,https://msk.n1.ru/view/115999034/?open_card_kn,"Грузинская Б., 12 ст2, Москва, Россия","{'district': 'Пресненский район', 'lat': 55.7663999, 'lon': 37.5773016}",Пресненский район,55.7663999,37.5773016
235000,"Ленинский проспект, 81/2",Москва,12500,18,Универсальное помещение,https://msk.n1.ru/view/115998873/?open_card_kn,"Ленинский проспект, 81/2, Москва, Россия","{'district': 'Ломоносовский район', 'lat': 55.6831436, 'lon': 37.5393322}",Ломоносовский район,55.6831436,37.5393322
750000,"Профсоюзная, 122",Москва,1250,600,Универсальное помещение,https://msk.n1.ru/view/115998861/?open_card_kn,"Профсоюзная, 122, Москва, Россия","{'district': 'район Тёплый Стан', 'lat': 55.6336871, 'lon': 37.5181049}",район Тёплый Стан,55.6336871,37.5181049
1200000,"Боровское шоссе, 6 корп. 3",Москва,1200,1000,Универсальное помещение,https://msk.n1.ru/view/115998839/?open_card_kn,"Боровское шоссе, 6 корп. 3, Москва, Россия","{'district': 'Ново-Переделкино', 'lat': 55.6423966, 'lon': 37.3599847}",Ново-Переделкино,55.6423966,37.3599847
200000,"Люблинская, 72а корп. 1",Москва,2739,73,Универсальное помещение,https://msk.n1.ru/view/115998837/?open_card_kn,"Люблинская, 72а корп. 1, Москва, Россия","{'district': 'район Марьино', 'lat': 55.6521269, 'lon': 37.7436138}",район Марьино,55.6521269,37.7436138
140000,"Братьев Бромлей, 5 корп. 2",Москва,1637,85,Универсальное помещение,https://msk.n1.ru/view/115998821/?open_card_kn,"Братьев Бромлей, 5 корп. 2, Москва, Россия","{'district': 'Филимонковский район', 'lat': 55.5685891, 'lon': 37.2813167}",Филимонковский район,55.5685891,37.2813167
695000,"Отрадная, 4а",Москва,2500,278,Универсальное помещение,https://msk.n1.ru/view/115998814/?open_card_kn,"Отрадная, 4а, Москва, Россия","{'district': 'район Отрадное', 'lat': 55.8576129, 'lon': 37.606942}",район Отрадное,55.8576129,37.606942
225000,"Виктора Маслова, 2",Москва,4500,50,Универсальное помещение,https://msk.n1.ru/view/115998768/?open_card_kn,"Виктора Маслова, 2, Москва, Россия","{'district': 'Даниловский район', 'lat': 55.7189433, 'lon': 37.6573005}",Даниловский район,55.7189433,37.6573005
147000,"Отрадная, 4а",Москва,3500,42,Универсальное помещение,https://msk.n1.ru/view/115998766/?open_card_kn,"Отрадная, 4а, Москва, Россия","{'district': 'район Отрадное', 'lat': 55.8576129, 'lon': 37.606942}",район Отрадное,55.8576129,37.606942
286667,"Отрадная, 4а",Москва,3333,86,Универсальное помещение,https://msk.n1.ru/view/115998763/?open_card_kn,"Отрадная, 4а, Москва, Россия","{'district': 'район Отрадное', 'lat': 55.8576129, 'lon': 37.606942}",район Отрадное,55.8576129,37.606942
652666,"Дубнинская, 75 ст1",Москва,1834,356,Универсальное помещение,https://msk.n1.ru/view/115998753/?open_card_kn,"Дубнинская, 75 ст1, Москва, Россия","{'district': 'Бескудниковский район', 'lat': 55.8691711, 'lon': 37.5621334}",Бескудниковский район,55.8691711,37.5621334
253333,"Отрадная, 4а",Москва,3333,76,Универсальное помещение,https://msk.n1.ru/view/115998748/?open_card_kn,"Отрадная, 4а, Москва, Россия","{'district': 'район Отрадное', 'lat': 55.8576129, 'lon': 37.606942}",район Отрадное,55.8576129,37.606942
470000,"Отрадная, 4а",Москва,2500,188,Универсальное помещение,https://msk.n1.ru/view/115998741/?open_card_kn,"Отрадная, 4а, Москва, Россия","{'district': 'район Отрадное', 'lat': 55.8576129, 'lon': 37.606942}",район Отрадное,55.8576129,37.606942
129500,"Отрадная, 4а",Москва,3500,37,Универсальное помещение,https://msk.n1.ru/view/115998528/?open_card_kn,"Отрадная, 4а, Москва, Россия","{'district': 'район Отрадное', 'lat': 55.8576129, 'lon': 37.606942}",район Отрадное,55.8576129,37.606942
1000000,"Ордынка Б., 45 ст3",Москва,4385,228,Универсальное помещение,https://msk.n1.ru/view/115643422/?open_card_kn,"Ордынка Б., 45 ст3, Москва, Россия","{'district': 'район Якиманка', 'lat': 55.7401026, 'lon': 37.6246599}",район Якиманка,55.7401026,37.6246599
84600,"Прокшино ЖК, 11.1.2",Москва,2000,42,Универсальное помещение,https://msk.n1.ru/view/115288840/?open_card_kn,"Прокшино ЖК, 11.1.2, Москва, Россия","{'district': 'Район не найден', 'lat': 55.5885606, 'lon': 37.4313956}",Район не найден,55.5885606,37.4313956
135000,"Варшавское шоссе, 69 корп. 2",Москва,1421,95,Универсальное помещение,https://msk.n1.ru/view/115288706/?open_card_kn,"Варшавское шоссе, 69 корп. 2, Москва, Россия","{'district': 'Канатчиково', 'lat': 55.7003237, 'lon': 37.6209188}",Канатчиково,55.7003237,37.6209188
174000,"Тюменский проезд, 3 корп. 8",Москва,3000,58,Универсальное помещение,https://msk.n1.ru/view/115288634/?open_card_kn,"Тюменский проезд, 3 корп. 8, Москва, Россия","{'district': 'район Богородское', 'lat': 55.8114889, 'lon': 37.7389521}",район Богородское,55.8114889,37.7389521
350000,"Мневники Нижн., 20",Москва,5872,59,Универсальное помещение,https://msk.n1.ru/view/115288629/?open_card_kn,"Мневники Нижн., 20, Москва, Россия","{'district': 'Адрес не найден', 'lat': None, 'lon': None}",Адрес не найден,,
400000,"Мневники Нижн., 20",Москва,5722,69,Универсальное помещение,https://msk.n1.ru/view/115288615/?open_card_kn,"Мневники Нижн., 20, Москва, Россия","{'district': 'Адрес не найден', 'lat': None, 'lon': None}",Адрес не найден,,
80000,"Троицкий 1-й переулок, 2",Москва,1600,50,Универсальное помещение,https://msk.n1.ru/view/113529123/?open_card_kn,"Троицкий 1-й переулок, 2, Москва, Россия","{'district': 'Адрес не найден', 'lat': None, 'lon': None}",Адрес не найден,,
350000,"Можайское шоссе, 4 корп. 1",Москва,2878,121,Универсальное помещение,https://msk.n1.ru/view/115288486/?open_card_kn,"Можайское шоссе, 4 корп. 1, Москва, Россия","{'district': 'Можайский район', 'lat': 55.7157167, 'lon': 37.4013416}",Можайский район,55.7157167,37.4013416
515000,"Тульская Б., 19",Москва,1152,447,Универсальное помещение,https://msk.n1.ru/view/115288473/?open_card_kn,"Тульская Б., 19, Москва, Россия","{'district': 'Даниловский район', 'lat': 55.7102147, 'lon': 37.6218822}",Даниловский район,55.7102147,37.6218822
65000,"Сущевский Вал, 3/5а",Москва,10833,6,Универсальное помещение,https://msk.n1.ru/view/114957525/?open_card_kn,"Сущевский Вал, 3/5а, Москва, Россия","{'district': 'район Марьина Роща', 'lat': 55.7926233, 'lon': 37.590741}",район Марьина Роща,55.7926233,37.590741
614940,"Новинский бульвар, 8",Москва,3700,166,Универсальное помещение,https://msk.n1.ru/view/115643177/?open_card_kn,"Новинский бульвар, 8, Москва, Россия","{'district': 'район Арбат', 'lat': 55.7508813, 'lon': 37.5837686}",район Арбат,55.7508813,37.5837686
539090,"Новинский бульвар, 8",Москва,3700,145,Универсальное помещение,https://msk.n1.ru/view/115643174/?open_card_kn,"Новинский бульвар, 8, Москва, Россия","{'district': 'район Арбат', 'lat': 55.7508813, 'lon': 37.5837686}",район Арбат,55.7508813,37.5837686
590000,"Кожевническая, 5",Москва,10925,54,Универсальное помещение,https://msk.n1.ru/view/115643168/?open_card_kn,"Кожевническая, 5, Москва, Россия","{'district': 'район Замоскворечье', 'lat': 55.7302519, 'lon': 37.6438167}",район Замоскворечье,55.7302519,37.6438167
500000,"Ордынка Б., 45 ст3",Москва,2293,218,Универсальное помещение,https://msk.n1.ru/view/115643166/?open_card_kn,"Ордынка Б., 45 ст3, Москва, Россия","{'district': 'район Якиманка', 'lat': 55.7401026, 'lon': 37.6246599}",район Якиманка,55.7401026,37.6246599
48000,"Бутырская, 86б",Москва,5333,9,Универсальное помещение,https://msk.n1.ru/view/114957524/?open_card_kn,"Бутырская, 86б, Москва, Россия","{'district': 'Бутырский район', 'lat': 55.8080429, 'lon': 37.5827494}",Бутырский район,55.8080429,37.5827494
2400000,"д. Лапшинка, 7к",Москва,2000,1200,Универсальное помещение,https://msk.n1.ru/view/113528850/?open_card_kn,"д. Лапшинка, 7к, Москва, Россия","{'district': 'Район не найден', 'lat': 55.6106009, 'lon': 37.3378249}",Район не найден,55.6106009,37.3378249
250000,"Перерва, 39",Москва,2500,100,Универсальное помещение,https://msk.n1.ru/view/115642990/?open_card_kn,"Перерва, 39, Москва, Россия","{'district': 'район Марьино', 'lat': 55.6591978, 'lon': 37.7465234}",район Марьино,55.6591978,37.7465234
450000,"Таганская, 29 ст1",Москва,5625,80,Универсальное помещение,https://msk.n1.ru/view/114957452/?open_card_kn,"Таганская, 29 ст1, Москва, Россия","{'district': 'Таганский район', 'lat': 55.7409704, 'lon': 37.6543835}",Таганский район,55.7409704,37.6543835
231900,"Новомихалковский 3-й проезд, 8/1",Москва,3000,77,Универсальное помещение,https://msk.n1.ru/view/115288423/?open_card_kn,"Новомихалковский 3-й проезд, 8/1, Москва, Россия","{'district': 'район Коптево', 'lat': 55.8395771, 'lon': 37.5376341}",район Коптево,55.8395771,37.5376341
110000,"Аэростатная, 6 корп. 1",Москва,1913,57,Универсальное помещение,https://msk.n1.ru/view/115642963/?open_card_kn,"Аэростатная, 6 корп. 1, Москва, Россия","{'district': 'Район не найден', 'lat': 55.5865811, 'lon': 37.1593718}",Район не найден,55.5865811,37.1593718
532200,"Рабочая, 91",Москва,1999,266,Универсальное помещение,https://msk.n1.ru/view/115642838/?open_card_kn,"Рабочая, 91, Москва, Россия","{'district': 'Таганский район', 'lat': 55.7409906, 'lon': 37.6945806}",Таганский район,55.7409906,37.6945806
400000,"Кавказский бульвар, 51 корп. 2",Москва,1978,202,Универсальное помещение,https://msk.n1.ru/view/115642836/?open_card_kn,"Кавказский бульвар, 51 корп. 2, Москва, Россия","{'district': 'район Царицыно', 'lat': 55.6278116, 'lon': 37.6441088}",район Царицыно,55.6278116,37.6441088
28000,"Академика Янгеля, 2",Москва,4666,6,Универсальное помещение,https://msk.n1.ru/view/114957384/?open_card_kn,"Академика Янгеля, 2, Москва, Россия","{'district': 'район Чертаново Южное', 'lat': 55.5960208, 'lon': 37.5938923}",район Чертаново Южное,55.5960208,37.5938923
534000,"Рабочая, 91",Москва,2000,267,Универсальное помещение,https://msk.n1.ru/view/115642828/?open_card_kn,"Рабочая, 91, Москва, Россия","{'district': 'Таганский район', 'lat': 55.7409906, 'lon': 37.6945806}",Таганский район,55.7409906,37.6945806
75000,"Хабаровская, 21",Москва,4166,18,Универсальное помещение,https://msk.n1.ru/view/116326871/?open_card_kn,"Хабаровская, 21, Москва, Россия","{'district': 'район Гольяново', 'lat': 55.8258103, 'lon': 37.8231053}",район Гольяново,55.8258103,37.8231053
160000,"Вернадского проспект, 41 ст1",Москва,4432,36,Универсальное помещение,https://msk.n1.ru/view/116324707/?open_card_kn,"Вернадского проспект, 41 ст1, Москва, Россия","{'district': 'район Раменки', 'lat': 55.6982501, 'lon': 37.5427604}",район Раменки,55.6982501,37.5427604
56000,"Абрамцевская, 9 корп. 1",Москва,861,65,Универсальное помещение,https://msk.n1.ru/view/116317381/?open_card_kn,"Абрамцевская, 9 корп. 1, Москва, Россия","{'district': 'район Лианозово', 'lat': 55.8984619, 'lon': 37.5738595}",район Лианозово,55.8984619,37.5738595
135000,"Заводская, 14 корп. 2",Москва,4500,30,Универсальное помещение,https://msk.n1.ru/view/116307908/?open_card_kn,"Заводская, 14 корп. 2, Москва, Россия","{'district': 'Район не найден', 'lat': 55.4864042, 'lon': 37.5543867}",Район не найден,55.4864042,37.5543867
800000,"Ямского Поля 3-я, 9 корп. 4",Москва,5755,139,Универсальное помещение,https://msk.n1.ru/view/116305699/?open_card_kn,"Ямского Поля 3-я, 9 корп. 4, Москва, Россия","{'district': 'район Беговой', 'lat': 55.7816942, 'lon': 37.5815869}",район Беговой,55.7816942,37.5815869
87879,"Пяловская, 1",Москва,1583,55,Универсальное помещение,https://msk.n1.ru/view/116255972/?open_card_kn,"Пяловская, 1, Москва, Россия","{'district': 'район Западное Дегунино', 'lat': 55.8621739, 'lon': 37.5362182}",район Западное Дегунино,55.8621739,37.5362182
80782,"Волжский бульвар, 51 ст7",Москва,3380,23,Универсальное помещение,https://msk.n1.ru/view/116241034/?open_card_kn,"Волжский бульвар, 51 ст7, Москва, Россия","{'district': 'район Кузьминки', 'lat': 55.7043471, 'lon': 37.7476453}",район Кузьминки,55.7043471,37.7476453
114228,"Чечерский проезд, 9а",Москва,1438,79,Универсальное помещение,https://msk.n1.ru/view/116238260/?open_card_kn,"Чечерский проезд, 9а, Москва, Россия","{'district': 'Щиброво', 'lat': 55.5325156, 'lon': 37.5359099}",Щиброво,55.5325156,37.5359099
35000,"Кирпичная, 41 ст7",Москва,2071,16,Универсальное помещение,https://msk.n1.ru/view/116237855/?open_card_kn,"Кирпичная, 41 ст7, Москва, Россия","{'district': 'район Соколиная Гора', 'lat': 55.7774018, 'lon': 37.7276879}",район Соколиная Гора,55.7774018,37.7276879
65000,"Смирновская, 2 ст1",Москва,3735,17,Универсальное помещение,https://msk.n1.ru/view/116210436/?open_card_kn,"Смирновская, 2 ст1, Москва, Россия","{'district': 'Нижегородский район', 'lat': 55.7366034, 'lon': 37.7096849}",Нижегородский район,55.7366034,37.7096849
205426,"Пяловская, 1",Москва,1781,115,Универсальное помещение,https://msk.n1.ru/view/116199179/?open_card_kn,"Пяловская, 1, Москва, Россия","{'district': 'район Западное Дегунино', 'lat': 55.8621739, 'lon': 37.5362182}",район Западное Дегунино,55.8621739,37.5362182
1920000,"д. Лапшинка, 7к",Москва,1600,1200,Универсальное помещение,https://msk.n1.ru/view/116198683/?open_card_kn,"д. Лапшинка, 7к, Москва, Россия","{'district': 'Район не найден', 'lat': 55.6106009, 'lon': 37.3378249}",Район не найден,55.6106009,37.3378249
150000,"Грайвороновский 2-й проезд, 44 корп. 2",Москва,3571,42,Универсальное помещение,https://msk.n1.ru/view/116195476/?open_card_kn,"Грайвороновский 2-й проезд, 44 корп. 2, Москва, Россия","{'district': 'Рязанский район', 'lat': 55.7272997, 'lon': 37.7500969}",Рязанский район,55.7272997,37.7500969
65385,"Никулинская, 11 корп. 4",Москва,1472,44,Универсальное помещение,https://msk.n1.ru/view/116145269/?open_card_kn,"Никулинская, 11 корп. 4, Москва, Россия","{'district': 'район Очаково-Матвеевское', 'lat': 55.6727565, 'lon': 37.4474982}",район Очаково-Матвеевское,55.6727565,37.4474982
55000,"Смирновская, 2 ст1",Москва,3437,16,Универсальное помещение,https://msk.n1.ru/view/116145013/?open_card_kn,"Смирновская, 2 ст1, Москва, Россия","{'district': 'Нижегородский район', 'lat': 55.7366034, 'lon': 37.7096849}",Нижегородский район,55.7366034,37.7096849
50560,"Нововатутинская-6-я (п Десеновское), 2",Москва,3200,15,Универсальное помещение,https://msk.n1.ru/view/116141614/?open_card_kn,"Нововатутинская-6-я (п Десеновское), 2, Москва, Россия","{'district': 'Адрес не найден', 'lat': None, 'lon': None}",Адрес не найден,,
750000,"Ленинский проспект, 38",Москва,5357,140,Универсальное помещение,https://msk.n1.ru/view/116138108/?open_card_kn,"Ленинский проспект, 38, Москва, Россия","{'district': 'Гагаринский район', 'lat': 55.7038691, 'lon': 37.5717308}",Гагаринский район,55.7038691,37.5717308
826500,"Мира проспект, 120",Москва,2375,348,Универсальное помещение,https://msk.n1.ru/view/116137263/?open_card_kn,"Мира проспект, 120, Москва, Россия","{'district': 'Алексеевский район', 'lat': 55.8116699, 'lon': 37.6393551}",Алексеевский район,55.8116699,37.6393551
210000,"Тагильская, 4в",Москва,3620,58,Универсальное помещение,https://msk.n1.ru/view/116136160/?open_card_kn,"Тагильская, 4в, Москва, Россия","{'district': 'район Метрогородок', 'lat': 55.8161887, 'lon': 37.7538813}",район Метрогородок,55.8161887,37.7538813
142290,"Почтовая М., 12",Москва,2700,52,Универсальное помещение,https://msk.n1.ru/view/116134596/?open_card_kn,"Почтовая М., 12, Москва, Россия","{'district': 'Бауманка', 'lat': 55.7753115, 'lon': 37.6912161}",Бауманка,55.7753115,37.6912161
280000,"Сущевский Вал, 22",Москва,13207,21,Универсальное помещение,https://msk.n1.ru/view/116059846/?open_card_kn,"Сущевский Вал, 22, Москва, Россия","{'district': 'район Марьина Роща', 'lat': 55.7920852, 'lon': 37.6002857}",район Марьина Роща,55.7920852,37.6002857
150000,"Каширский проезд, 25 корп. 5",Москва,3750,40,Универсальное помещение,https://msk.n1.ru/view/116006716/?open_card_kn,"Каширский проезд, 25 корп. 5, Москва, Россия","{'district': 'район Москворечье-Сабурово', 'lat': 55.6501477, 'lon': 37.623355}",район Москворечье-Сабурово,55.6501477,37.623355
1275000,"Кутузовский проспект, 88",Москва,1666,765,Универсальное помещение,https://msk.n1.ru/view/115958093/?open_card_kn,"Кутузовский проспект, 88, Москва, Россия","{'district': 'район Фили-Давыдково', 'lat': 55.7255775, 'lon': 37.4497934}",район Фили-Давыдково,55.7255775,37.4497934
450000,"Слава ЖК, 3",Москва,6338,71,Универсальное помещение,https://msk.n1.ru/view/115873426/?open_card_kn,"Слава ЖК, 3, Москва, Россия","{'district': 'Адрес не найден', 'lat': None, 'lon': None}",Адрес не найден,,
160586,"Никулинская, 11 корп. 4",Москва,1874,85,Универсальное помещение,https://msk.n1.ru/view/115871028/?open_card_kn,"Никулинская, 11 корп. 4, Москва, Россия","{'district': 'район Очаково-Матвеевское', 'lat': 55.6727565, 'lon': 37.4474982}",район Очаково-Матвеевское,55.6727565,37.4474982
120000,"Николая Озерова, 2 корп. 1",Москва,3418,35,Универсальное помещение,https://msk.n1.ru/view/115866222/?open_card_kn,"Николая Озерова, 2 корп. 1, Москва, Россия","{'district': 'район Покровское-Стрешнево', 'lat': 55.8132141, 'lon': 37.4298735}",район Покровское-Стрешнево,55.8132141,37.4298735
65750,"Каширское шоссе, 14",Москва,2500,26,Универсальное помещение,https://msk.n1.ru/view/115782649/?open_card_kn,"Каширское шоссе, 14, Москва, Россия","{'district': 'район Москворечье-Сабурово', 'lat': 55.6506482, 'lon': 37.6677902}",район Москворечье-Сабурово,55.6506482,37.6677902
228000,"Саввинский Б. переулок, 9 ст3",Москва,2919,78,Универсальное помещение,https://msk.n1.ru/view/115725754/?open_card_kn,"Саввинский Б. переулок, 9 ст3, Москва, Россия","{'district': 'Адрес не найден', 'lat': None, 'lon': None}",Адрес не найден,,
149000,"Новоспасский переулок, 3 корп. 2",Москва,2483,60,Универсальное помещение,https://msk.n1.ru/view/115686920/?open_card_kn,"Новоспасский переулок, 3 корп. 2, Москва, Россия","{'district': 'Таганский район', 'lat': 55.7333835, 'lon': 37.6511348}",Таганский район,55.7333835,37.6511348
105500,"Рябиновая, 9",Москва,1507,70,Универсальное помещение,https://msk.n1.ru/view/115677977/?open_card_kn,"Рябиновая, 9, Москва, Россия","{'district': 'Район не найден', 'lat': 55.5936496, 'lon': 37.2138779}",Район не найден,55.5936496,37.2138779
299999,"Красносельская Верхн., 9",Москва,3225,93,Универсальное помещение,https://msk.n1.ru/view/115671075/?open_card_kn,"Красносельская Верхн., 9, Москва, Россия","{'district': 'Адрес не найден', 'lat': None, 'lon': None}",Адрес не найден,,
750000,"Дубининская, 59б",Москва,4953,151,Универсальное помещение,https://msk.n1.ru/view/115661116/?open_card_kn,"Дубининская, 59б, Москва, Россия","{'district': 'Даниловский район', 'lat': 55.7173039, 'lon': 37.6365771}",Даниловский район,55.7173039,37.6365771
73000,"Василия Ощепкова (Сосенское п.), 6",Москва,2000,36,Универсальное помещение,https://msk.n1.ru/view/115638936/?open_card_kn,"Василия Ощепкова (Сосенское п.), 6, Москва, Россия","{'district': 'Адрес не найден', 'lat': None, 'lon': None}",Адрес не найден,,
230492,"Нововатутинская-6-я (п Десеновское), 2",Москва,1488,154,Универсальное помещение,https://msk.n1.ru/view/115624456/?open_card_kn,"Нововатутинская-6-я (п Десеновское), 2, Москва, Россия","{'district': 'Адрес не найден', 'lat': None, 'lon': None}",Адрес не найден,,
300000,"Полянка Б., 3/9",Москва,3236,92,Универсальное помещение,https://msk.n1.ru/view/115615767/?open_card_kn,"Полянка Б., 3/9, Москва, Россия","{'district': 'район Якиманка', 'lat': 55.730406, 'lon': 37.6230792}",район Якиманка,55.730406,37.6230792
45000,"Ермолаевский переулок, 4",Москва,2250,20,Универсальное помещение,https://msk.n1.ru/view/115597670/?open_card_kn,"Ермолаевский переулок, 4, Москва, Россия","{'district': 'Пресненский район', 'lat': 55.7631411, 'lon': 37.5896812}",Пресненский район,55.7631411,37.5896812
270000,"проспект Куприна, 3 корп. 2",Москва,2836,95,Универсальное помещение,https://msk.n1.ru/view/115589927/?open_card_kn,"проспект Куприна, 3 корп. 2, Москва, Россия","{'district': 'Район не найден', 'lat': 55.5648325, 'lon': 37.515562}",Район не найден,55.5648325,37.515562
210000,"проспект Куприна, 3 корп. 2",Москва,2505,83,Универсальное помещение,https://msk.n1.ru/view/115589914/?open_card_kn,"проспект Куприна, 3 корп. 2, Москва, Россия","{'district': 'Район не найден', 'lat': 55.5648325, 'lon': 37.515562}",Район не найден,55.5648325,37.515562
89930,"Летчика Осканова, 6",Москва,1700,52,Универсальное помещение,https://msk.n1.ru/view/115448371/?open_card_kn,"Летчика Осканова, 6, Москва, Россия","{'district': 'район Западное Дегунино', 'lat': 55.8553244, 'lon': 37.5574996}",район Западное Дегунино,55.8553244,37.5574996
278126,"Шмитовский проезд, 39 корп. 4",Москва,10417,26,Универсальное помещение,https://msk.n1.ru/view/115403166/?open_card_kn,"Шмитовский проезд, 39 корп. 4, Москва, Россия","{'district': 'Пресненский район', 'lat': 55.7558464, 'lon': 37.5319715}",Пресненский район,55.7558464,37.5319715
279680,"Мира проспект, 135а",Москва,3200,87,Универсальное помещение,https://msk.n1.ru/view/115328949/?open_card_kn,"Мира проспект, 135а, Москва, Россия","{'district': 'район Ростокино', 'lat': 55.8340701, 'lon': 37.652153}",район Ростокино,55.8340701,37.652153
230000,"Таганская, 25",Москва,1229,187,Универсальное помещение,https://msk.n1.ru/view/115251278/?open_card_kn,"Таганская, 25, Москва, Россия","{'district': 'Таганский район', 'lat': 55.7401192, 'lon': 37.6653491}",Таганский район,55.7401192,37.6653491
3751870,"Годовикова, 9 ст15",Москва,2224,1687,Универсальное помещение,https://msk.n1.ru/view/115244200/?open_card_kn,"Годовикова, 9 ст15, Москва, Россия","{'district': 'Останкинский район', 'lat': 55.8086496, 'lon': 37.6304648}",Останкинский район,55.8086496,37.6304648
280000,"Каширское шоссе, 3 корп. 2 ст9",Москва,2540,110,Универсальное помещение,https://msk.n1.ru/view/115203440/?open_card_kn,"Каширское шоссе, 3 корп. 2 ст9, Москва, Россия","{'district': 'район Нагатино-Садовники', 'lat': 55.6722978, 'lon': 37.6271915}",район Нагатино-Садовники,55.6722978,37.6271915
189500,"Рябиновая, 9",Москва,1230,154,Универсальное помещение,https://msk.n1.ru/view/115001832/?open_card_kn,"Рябиновая, 9, Москва, Россия","{'district': 'Район не найден', 'lat': 55.5936496, 'lon': 37.2138779}",Район не найден,55.5936496,37.2138779
300000,"Никулинская, 11 корп. 4",Москва,1764,170,Универсальное помещение,https://msk.n1.ru/view/114907739/?open_card_kn,"Никулинская, 11 корп. 4, Москва, Россия","{'district': 'район Очаково-Матвеевское', 'lat': 55.6727565, 'lon': 37.4474982}",район Очаково-Матвеевское,55.6727565,37.4474982
805000,"Научный проезд, 19",Москва,2000,402,Универсальное помещение,https://msk.n1.ru/view/114847250/?open_card_kn,"Научный проезд, 19, Москва, Россия","{'district': 'район Черёмушки', 'lat': 55.6531659, 'lon': 37.5541061}",район Черёмушки,55.6531659,37.5541061
4783479,"Красносельская Нижн., 40/12 корп. 5",Москва,3084,1551,Универсальное помещение,https://msk.n1.ru/view/114688198/?open_card_kn,"Красносельская Нижн., 40/12 корп. 5, Москва, Россия","{'district': 'Адрес не найден', 'lat': None, 'lon': None}",Адрес не найден,,
150000,"Курсовой переулок, 15",Москва,2500,60,Универсальное помещение,https://msk.n1.ru/view/114478059/?open_card_kn,"Курсовой переулок, 15, Москва, Россия","{'district': 'район Хамовники', 'lat': 55.740603, 'lon': 37.6056278}",район Хамовники,55.740603,37.6056278
350000,"Льва Толстого, 8 ст3",Москва,2991,117,Универсальное помещение,https://msk.n1.ru/view/114446285/?open_card_kn,"Льва Толстого, 8 ст3, Москва, Россия","{'district': 'район Хамовники', 'lat': 55.7327983, 'lon': 37.5885542}",район Хамовники,55.7327983,37.5885542
550000,"Красносельская Нижн., 35 ст48",Москва,3096,177,Универсальное помещение,https://msk.n1.ru/view/113993777/?open_card_kn,"Красносельская Нижн., 35 ст48, Москва, Россия","{'district': 'Адрес не найден', 'lat': None, 'lon': None}",Адрес не найден,,
224000,"Красковский 1-й проезд, 38а",Москва,933,240,Универсальное помещение,https://msk.n1.ru/view/113873396/?open_card_kn,"Красковский 1-й проезд, 38а, Москва, Россия","{'district': 'район Косино-Ухтомский', 'lat': 55.7163088, 'lon': 37.9055221}",район Косино-Ухтомский,55.7163088,37.9055221
619667,"Маршала Рыбалко, 2 корп. 9",Москва,4583,135,Универсальное помещение,https://msk.n1.ru/view/113831012/?open_card_kn,"Маршала Рыбалко, 2 корп. 9, Москва, Россия","{'district': 'район Щукино', 'lat': 55.7997624, 'lon': 37.4843809}",район Щукино,55.7997624,37.4843809
285000,"проспект Куприна, 7 корп. 1",Москва,3081,92,Универсальное помещение,https://msk.n1.ru/view/113817627/?open_card_kn,"проспект Куприна, 7 корп. 1, Москва, Россия","{'district': 'Район не найден', 'lat': 55.5648325, 'lon': 37.515562}",Район не найден,55.5648325,37.515562
650000,"Бауманская 2-я, 9/23 ст3",Москва,3973,163,Универсальное помещение,https://msk.n1.ru/view/113689642/?open_card_kn,"Бауманская 2-я, 9/23 ст3, Москва, Россия","{'district': 'Бауманка', 'lat': 55.7764368, 'lon': 37.6758181}",Бауманка,55.7764368,37.6758181
1037157,"Шмитовский проезд, 39 корп. 4",Москва,7188,144,Универсальное помещение,https://msk.n1.ru/view/113641379/?open_card_kn,"Шмитовский проезд, 39 корп. 4, Москва, Россия","{'district': 'Пресненский район', 'lat': 55.7558464, 'lon': 37.5319715}",Пресненский район,55.7558464,37.5319715
1400000,"Уральская, 1а",Москва,2162,647,Универсальное помещение,https://msk.n1.ru/view/113604079/?open_card_kn,"Уральская, 1а, Москва, Россия","{'district': 'район Гольяново', 'lat': 55.8106429, 'lon': 37.7978323}",район Гольяново,55.8106429,37.7978323
2500000,"Долгоруковская, 40",Москва,3117,801,Универсальное помещение,https://msk.n1.ru/view/113204335/?open_card_kn,"Долгоруковская, 40, Москва, Россия","{'district': 'Тверской район', 'lat': 55.7785132, 'lon': 37.6021162}",Тверской район,55.7785132,37.6021162
80000,"Кутузовский проспект, 88",Москва,3478,23,Универсальное помещение,https://msk.n1.ru/view/113185586/?open_card_kn,"Кутузовский проспект, 88, Москва, Россия","{'district': 'район Фили-Давыдково', 'lat': 55.7255775, 'lon': 37.4497934}",район Фили-Давыдково,55.7255775,37.4497934
500000,"Долгоруковская, 40",Москва,1020,489,Универсальное помещение,https://msk.n1.ru/view/112986436/?open_card_kn,"Долгоруковская, 40, Москва, Россия","{'district': 'Тверской район', 'lat': 55.7785132, 'lon': 37.6021162}",Тверской район,55.7785132,37.6021162
8900000,"Кутузовский проспект, 88",Москва,2857,3115,Универсальное помещение,https://msk.n1.ru/view/112959277/?open_card_kn,"Кутузовский проспект, 88, Москва, Россия","{'district': 'район Фили-Давыдково', 'lat': 55.7255775, 'lon': 37.4497934}",район Фили-Давыдково,55.7255775,37.4497934
470000,"Холодильный переулок, 3 корп. 1 ст3",Москва,3916,120,Универсальное помещение,https://msk.n1.ru/view/112630730/?open_card_kn,"Холодильный переулок, 3 корп. 1 ст3, Москва, Россия","{'district': 'Даниловский район', 'lat': 55.7083375, 'lon': 37.6244252}",Даниловский район,55.7083375,37.6244252
2228800,"Вятская, 27 ст13",Москва,5600,398,Универсальное помещение,https://msk.n1.ru/view/112362372/?open_card_kn,"Вятская, 27 ст13, Москва, Россия","{'district': 'Савёловский район', 'lat': 55.7953162, 'lon': 37.582195}",Савёловский район,55.7953162,37.582195
67200,"Скандинавский бульвар (Сосенское п.), 12",Москва,1200,56,Универсальное помещение,https://msk.n1.ru/view/111650768/?open_card_kn,"Скандинавский бульвар (Сосенское п.), 12, Москва, Россия","{'district': 'Адрес не найден', 'lat': None, 'lon': None}",Адрес не найден,,
7331247,"Софийская набережная, 36",Москва,7084,1035,Универсальное помещение,https://msk.n1.ru/view/110180968/?open_card_kn,"Софийская набережная, 36, Москва, Россия","{'district': 'район Якиманка', 'lat': 55.7473216, 'lon': 37.6157301}",район Якиманка,55.7473216,37.6157301
141750,"Первомайская Нижн., 12б",Москва,2500,56,Универсальное помещение,https://msk.n1.ru/view/109646404/?open_card_kn,"Первомайская Нижн., 12б, Москва, Россия","{'district': 'Адрес не найден', 'lat': None, 'lon': None}",Адрес не найден,,
1125001,"Старопименовский переулок, 11 ст3",Москва,4167,270,Универсальное помещение,https://msk.n1.ru/view/109061531/?open_card_kn,"Старопименовский переулок, 11 ст3, Москва, Россия","{'district': 'Тверской район', 'lat': 55.7688702, 'lon': 37.6009317}",Тверской район,55.7688702,37.6009317
1129792,"Шаболовка, 31б",Москва,2291,493,Универсальное помещение,https://msk.n1.ru/view/108753109/?open_card_kn,"Шаболовка, 31б, Москва, Россия","{'district': 'район Якиманка', 'lat': 55.7202427, 'lon': 37.615051}",район Якиманка,55.7202427,37.615051
3184042,"Шаболовка, 31б",Москва,2291,1389,Универсальное помещение,https://msk.n1.ru/view/108753099/?open_card_kn,"Шаболовка, 31б, Москва, Россия","{'district': 'район Якиманка', 'lat': 55.7202427, 'lon': 37.615051}",район Якиманка,55.7202427,37.615051
900000,"Новый Арбат, 32",Москва,6607,136,Универсальное помещение,https://msk.n1.ru/view/108589629/?open_card_kn,"Новый Арбат, 32, Москва, Россия","{'district': 'район Арбат', 'lat': 55.7532911, 'lon': 37.5801398}",район Арбат,55.7532911,37.5801398
2507670,"Шаболовка, 31 ст5",Москва,2475,1013,Универсальное помещение,https://msk.n1.ru/view/96446882/?open_card_kn,"Шаболовка, 31 ст5, Москва, Россия","{'district': 'Даниловский район', 'lat': 55.7153508, 'lon': 37.6078858}",Даниловский район,55.7153508,37.6078858
77550,"Шаболовка, 31а",Москва,1833,42,Универсальное помещение,https://msk.n1.ru/view/96118214/?open_card_kn,"Шаболовка, 31а, Москва, Россия","{'district': 'Даниловский район', 'lat': 55.7153508, 'lon': 37.6078858}",Даниловский район,55.7153508,37.6078858
627586,"Шаболовка, 31 ст23",Москва,2016,311,Универсальное помещение,https://msk.n1.ru/view/96117746/?open_card_kn,"Шаболовка, 31 ст23, Москва, Россия","{'district': 'Даниловский район', 'lat': 55.7153508, 'lon': 37.6078858}",Даниловский район,55.7153508,37.6078858
1967208,"Шаболовка, 31б",Москва,2298,855,Универсальное помещение,https://msk.n1.ru/view/96117685/?open_card_kn,"Шаболовка, 31б, Москва, Россия","{'district': 'район Якиманка', 'lat': 55.7202427, 'lon': 37.615051}",район Якиманка,55.7202427,37.615051
100000,"Новинский бульвар, 12",Москва,4166,24,Универсальное помещение,https://msk.n1.ru/view/80867744/?open_card_kn,"Новинский бульвар, 12, Москва, Россия","{'district': 'район Арбат', 'lat': 55.7532207, 'lon': 37.5841551}",район Арбат,55.7532207,37.5841551
7600000,"Холодильный переулок, 3 корп. 1 ст3",Москва,5942,1279,Универсальное помещение,https://msk.n1.ru/view/108560398/?open_card_kn,"Холодильный переулок, 3 корп. 1 ст3, Москва, Россия","{'district': 'Даниловский район', 'lat': 55.7083375, 'lon': 37.6244252}",Даниловский район,55.7083375,37.6244252
99900,"Локомотивный проезд, 4",Москва,4540,22,Универсальное помещение,https://msk.n1.ru/view/108560348/?open_card_kn,"Локомотивный проезд, 4, Москва, Россия","{'district': 'Тимирязевский район', 'lat': 55.8380157, 'lon': 37.5768556}",Тимирязевский район,55.8380157,37.5768556
950000,"Мастеркова, 4",Москва,2101,452,Универсальное помещение,https://msk.n1.ru/view/116330207/?open_card_kn,"Мастеркова, 4, Москва, Россия","{'district': 'Даниловский район', 'lat': 55.7086926, 'lon': 37.6561313}",Даниловский район,55.7086926,37.6561313
110000,"Кленовый бульвар, 2",Москва,3333,33,Универсальное помещение,https://msk.n1.ru/view/116330170/?open_card_kn,"Кленовый бульвар, 2, Москва, Россия","{'district': 'район Нагатинский Затон', 'lat': 55.6792246, 'lon': 37.6754126}",район Нагатинский Затон,55.6792246,37.6754126
200000,"Дмитровское шоссе, 124а",Москва,2247,89,Универсальное помещение,https://msk.n1.ru/view/116330149/?open_card_kn,"Дмитровское шоссе, 124а, Москва, Россия","{'district': 'район Северный', 'lat': 55.9259082, 'lon': 37.5488784}",район Северный,55.9259082,37.5488784
110000,"Менжинского, 3",Москва,2200,50,Универсальное помещение,https://msk.n1.ru/view/114574635/?open_card_kn,"Менжинского, 3, Москва, Россия","{'district': 'Бабушкинский район', 'lat': 55.8657316, 'lon': 37.6799844}",Бабушкинский район,55.8657316,37.6799844
421875,"Ротмистрова, 2 корп. 3",Москва,3750,112,Универсальное помещение,https://msk.n1.ru/view/114574598/?open_card_kn,"Ротмистрова, 2 корп. 3, Москва, Россия","{'district': 'район Щукино', 'lat': 55.79125, 'lon': 37.4777253}",район Щукино,55.79125,37.4777253
482167,"Ротмистрова, 2 корп. 3",Москва,4583,105,Универсальное помещение,https://msk.n1.ru/view/114574575/?open_card_kn,"Ротмистрова, 2 корп. 3, Москва, Россия","{'district': 'район Щукино', 'lat': 55.79125, 'lon': 37.4777253}",район Щукино,55.79125,37.4777253
965000,"Ротмистрова, 2 корп. 3",Москва,5000,193,Универсальное помещение,https://msk.n1.ru/view/114574574/?open_card_kn,"Ротмистрова, 2 корп. 3, Москва, Россия","{'district': 'район Щукино', 'lat': 55.79125, 'lon': 37.4777253}",район Щукино,55.79125,37.4777253
280000,"Планерная, 12 корп. 1",Москва,16666,16,Универсальное помещение,https://msk.n1.ru/view/114574475/?open_card_kn,"Планерная, 12 корп. 1, Москва, Россия","{'district': 'район Северное Тушино', 'lat': 55.870149, 'lon': 37.4401768}",район Северное Тушино,55.870149,37.4401768
578333,"Ротмистрова, 2 корп. 3",Москва,2996,193,Универсальное помещение,https://msk.n1.ru/view/114574466/?open_card_kn,"Ротмистрова, 2 корп. 3, Москва, Россия","{'district': 'район Щукино', 'lat': 55.79125, 'lon': 37.4777253}",район Щукино,55.79125,37.4777253
472000,"Ротмистрова, 2 корп. 3",Москва,3333,141,Универсальное помещение,https://msk.n1.ru/view/114574448/?open_card_kn,"Ротмистрова, 2 корп. 3, Москва, Россия","{'district': 'район Щукино', 'lat': 55.79125, 'lon': 37.4777253}",район Щукино,55.79125,37.4777253
285500,"Авиаконструктора Микояна, 14 корп. 1",Москва,2500,114,Универсальное помещение,https://msk.n1.ru/view/106570822/?open_card_kn,"Авиаконструктора Микояна, 14 корп. 1, Москва, Россия","{'district': 'Хорошёвский район', 'lat': 55.7916339, 'lon': 37.5327019}",Хорошёвский район,55.7916339,37.5327019
200000,"Менжинского, 3",Москва,1576,126,Универсальное помещение,https://msk.n1.ru/view/114574199/?open_card_kn,"Менжинского, 3, Москва, Россия","{'district': 'Бабушкинский район', 'lat': 55.8657316, 'lon': 37.6799844}",Бабушкинский район,55.8657316,37.6799844
469333,"Ротмистрова, 2 корп. 4",Москва,4583,102,Универсальное помещение,https://msk.n1.ru/view/114574200/?open_card_kn,"Ротмистрова, 2 корп. 4, Москва, Россия","{'district': 'район Щукино', 'lat': 55.79125, 'lon': 37.4777253}",район Щукино,55.79125,37.4777253
430000,"Новослободская, 20",Москва,24855,17,Универсальное помещение,https://msk.n1.ru/view/114574075/?open_card_kn,"Новослободская, 20, Москва, Россия","{'district': 'Тверской район', 'lat': 55.7823538, 'lon': 37.5986634}",Тверской район,55.7823538,37.5986634
150000,"Менжинского, 3",Москва,1764,85,Универсальное помещение,https://msk.n1.ru/view/114574074/?open_card_kn,"Менжинского, 3, Москва, Россия","{'district': 'Бабушкинский район', 'lat': 55.8657316, 'lon': 37.6799844}",Бабушкинский район,55.8657316,37.6799844
1299992,"Мира проспект, 40",Москва,3605,360,Универсальное помещение,https://msk.n1.ru/view/115639500/?open_card_kn,"Мира проспект, 40, Москва, Россия","{'district': 'Мещанский район', 'lat': 55.7801139, 'lon': 37.6336606}",Мещанский район,55.7801139,37.6336606
1700000,"Большая Садовая, 6 ст2",Москва,6995,243,Универсальное помещение,https://msk.n1.ru/view/114574066/?open_card_kn,"Большая Садовая, 6 ст2, Москва, Россия","{'district': 'Пресненский район', 'lat': 55.7680544, 'lon': 37.5941742}",Пресненский район,55.7680544,37.5941742
1300000,"Долгоруковская, 40",Москва,8029,161,Универсальное помещение,https://msk.n1.ru/view/115639349/?open_card_kn,"Долгоруковская, 40, Москва, Россия","{'district': 'Тверской район', 'lat': 55.7785132, 'lon': 37.6021162}",Тверской район,55.7785132,37.6021162
2595600,"Звенигородское шоссе, 11",Москва,2100,1236,Универсальное помещение,https://msk.n1.ru/view/115639344/?open_card_kn,"Звенигородское шоссе, 11, Москва, Россия","{'district': 'Пресненский район', 'lat': 55.7639727, 'lon': 37.5492487}",Пресненский район,55.7639727,37.5492487
1299999,"Мира проспект, 40",Москва,4334,300,Универсальное помещение,https://msk.n1.ru/view/115639068/?open_card_kn,"Мира проспект, 40, Москва, Россия","{'district': 'Мещанский район', 'lat': 55.7801139, 'lon': 37.6336606}",Мещанский район,55.7801139,37.6336606
300000,"Саввинская набережная, 7 ст3",Москва,2777,108,Универсальное помещение,https://msk.n1.ru/view/115639064/?open_card_kn,"Саввинская набережная, 7 ст3, Москва, Россия","{'district': 'район Хамовники', 'lat': 55.7348696, 'lon': 37.565441}",район Хамовники,55.7348696,37.565441
50000,"Мартеновская, 7",Москва,2083,24,Универсальное помещение,https://msk.n1.ru/view/115284718/?open_card_kn,"Мартеновская, 7, Москва, Россия","{'district': 'район Перово', 'lat': 55.7575592, 'lon': 37.8052749}",район Перово,55.7575592,37.8052749
45000,"Нижегородская, 3",Москва,3600,12,Универсальное помещение,https://msk.n1.ru/view/115639045/?open_card_kn,"Нижегородская, 3, Москва, Россия","{'district': 'Таганский район', 'lat': 55.7394863, 'lon': 37.6766507}",Таганский район,55.7394863,37.6766507
140000,"Долгоруковская, 29",Москва,2345,59,Универсальное помещение,https://msk.n1.ru/view/116328958/?open_card_kn,"Долгоруковская, 29, Москва, Россия","{'district': 'Тверской район', 'lat': 55.7769629, 'lon': 37.6006058}",Тверской район,55.7769629,37.6006058
1576080,"Рощинский 4-й проезд, 20 ст1",Москва,2985,528,Универсальное помещение,https://msk.n1.ru/view/115993934/?open_card_kn,"Рощинский 4-й проезд, 20 ст1, Москва, Россия","{'district': 'Адрес не найден', 'lat': None, 'lon': None}",Адрес не найден,,
398700,"Филевский бульвар, 24 корп. 2",Москва,3000,132,Универсальное помещение,https://msk.n1.ru/view/115636965/?open_card_kn,"Филевский бульвар, 24 корп. 2, Москва, Россия","{'district': 'район Филёвский Парк', 'lat': 55.7634224, 'lon': 37.4917732}",район Филёвский Парк,55.7634224,37.4917732
631800,"Покровский бульвар, 3 ст1б",Москва,3510,180,Универсальное помещение,https://msk.n1.ru/view/115993695/?open_card_kn,"Покровский бульвар, 3 ст1б, Москва, Россия","{'district': 'Басманный район', 'lat': 55.757402, 'lon': 37.6474313}",Басманный район,55.757402,37.6474313
900000,"Долгоруковская, 9",Москва,3000,300,Универсальное помещение,https://msk.n1.ru/view/115993685/?open_card_kn,"Долгоруковская, 9, Москва, Россия","{'district': 'Тверской район', 'lat': 55.7741137, 'lon': 37.6034676}",Тверской район,55.7741137,37.6034676
538200,"Ясногорская, 7а",Москва,2300,234,Универсальное помещение,https://msk.n1.ru/view/115636674/?open_card_kn,"Ясногорская, 7а, Москва, Россия","{'district': 'район Ясенево', 'lat': 55.6085835, 'lon': 37.5373743}",район Ясенево,55.6085835,37.5373743
342000,"Измайловский проспект, 61 ст1",Москва,4000,85,Универсальное помещение,https://msk.n1.ru/view/115281590/?open_card_kn,"Измайловский проспект, 61 ст1, Москва, Россия","{'district': 'район Восточное Измайлово', 'lat': 55.7889029, 'lon': 37.8071653}",район Восточное Измайлово,55.7889029,37.8071653
181500,"Ходынская, 2 ст1",Москва,5500,33,Универсальное помещение,https://msk.n1.ru/view/115281582/?open_card_kn,"Ходынская, 2 ст1, Москва, Россия","{'district': 'Пресненский район', 'lat': 55.7705553, 'lon': 37.5559054}",Пресненский район,55.7705553,37.5559054
3000000,"Тверская, 17",Москва,15789,190,Универсальное помещение,https://msk.n1.ru/view/115281571/?open_card_kn,"Тверская, 17, Москва, Россия","{'district': 'Тверской район', 'lat': 55.7635161, 'lon': 37.6065559}",Тверской район,55.7635161,37.6065559
199900,"Спасская Б., 29",Москва,2498,80,Универсальное помещение,https://msk.n1.ru/view/115636603/?open_card_kn,"Спасская Б., 29, Москва, Россия","{'district': 'Красносельский район', 'lat': 55.7713646, 'lon': 37.6404813}",Красносельский район,55.7713646,37.6404813
270000,"Ясногорская, 7а",Москва,3375,80,Универсальное помещение,https://msk.n1.ru/view/115636587/?open_card_kn,"Ясногорская, 7а, Москва, Россия","{'district': 'район Ясенево', 'lat': 55.6085835, 'lon': 37.5373743}",район Ясенево,55.6085835,37.5373743
300000,"Полянка Б., 3/9",Москва,3236,92,Универсальное помещение,https://msk.n1.ru/view/115636582/?open_card_kn,"Полянка Б., 3/9, Москва, Россия","{'district': 'район Якиманка', 'lat': 55.730406, 'lon': 37.6230792}",район Якиманка,55.730406,37.6230792
300000,"Маршала Катукова, 23",Москва,582,515,Универсальное помещение,https://msk.n1.ru/view/114206013/?open_card_kn,"Маршала Катукова, 23, Москва, Россия","{'district': 'район Строгино', 'lat': 55.8056587, 'lon': 37.4133316}",район Строгино,55.8056587,37.4133316
1178680,"Тестовская, 10",Москва,4000,294,Универсальное помещение,https://msk.n1.ru/view/114566468/?open_card_kn,"Тестовская, 10, Москва, Россия","{'district': 'Пресненский район', 'lat': 55.7517642, 'lon': 37.5326254}",Пресненский район,55.7517642,37.5326254
602305,"Тестовская, 10",Москва,5500,109,Универсальное помещение,https://msk.n1.ru/view/114566467/?open_card_kn,"Тестовская, 10, Москва, Россия","{'district': 'Пресненский район', 'lat': 55.7517642, 'lon': 37.5326254}",Пресненский район,55.7517642,37.5326254
639000,"Тестовская, 10",Москва,3000,213,Универсальное помещение,https://msk.n1.ru/view/114566466/?open_card_kn,"Тестовская, 10, Москва, Россия","{'district': 'Пресненский район', 'lat': 55.7517642, 'lon': 37.5326254}",Пресненский район,55.7517642,37.5326254
560000,"Варшавское шоссе, 170г",Москва,800,700,Универсальное помещение,https://msk.n1.ru/view/114205986/?open_card_kn,"Варшавское шоссе, 170г, Москва, Россия","{'district': 'район Чертаново Южное', 'lat': 55.579517, 'lon': 37.5917295}",район Чертаново Южное,55.579517,37.5917295
400000,"Академика Королева, 21",Москва,2919,137,Универсальное помещение,https://msk.n1.ru/view/113865905/?open_card_kn,"Академика Королева, 21, Москва, Россия","{'district': 'Останкинский район', 'lat': 55.8198788, 'lon': 37.6023039}",Останкинский район,55.8198788,37.6023039
600000,"Волгоградский проспект, 2",Москва,1445,415,Универсальное помещение,https://msk.n1.ru/view/114955136/?open_card_kn,"Волгоградский проспект, 2, Москва, Россия","{'district': 'Таганский район', 'lat': 55.7312183, 'lon': 37.6693048}",Таганский район,55.7312183,37.6693048
509905,"Гагаринский переулок, 23 ст1",Москва,2697,189,Универсальное помещение,https://msk.n1.ru/view/113865787/?open_card_kn,"Гагаринский переулок, 23 ст1, Москва, Россия","{'district': 'район Хамовники', 'lat': 55.7447164, 'lon': 37.594582}",район Хамовники,55.7447164,37.594582
1178000,"Крылатская, 17 корп. 1",Москва,6200,190,Универсальное помещение,https://msk.n1.ru/view/115991784/?open_card_kn,"Крылатская, 17 корп. 1, Москва, Россия","{'district': 'район Крылатское', 'lat': 55.7528973, 'lon': 37.4322473}",район Крылатское,55.7528973,37.4322473
259840,"Палиха, 13/1 ст2",Москва,2333,111,Универсальное помещение,https://msk.n1.ru/view/115991783/?open_card_kn,"Палиха, 13/1 ст2, Москва, Россия","{'district': 'Тверской район', 'lat': 55.7845277, 'lon': 37.5992035}",Тверской район,55.7845277,37.5992035
500000,"Лобачевского, 120 корп. 1",Москва,5857,85,Универсальное помещение,https://msk.n1.ru/view/77752827/?open_card_kn,"Лобачевского, 120 корп. 1, Москва, Россия","{'district': 'район Раменки', 'lat': 55.6847011, 'lon': 37.4790697}",район Раменки,55.6847011,37.4790697
29000,"Кадырова, 8",Москва,4142,7,Универсальное помещение,https://msk.n1.ru/view/77752629/?open_card_kn,"Кадырова, 8, Москва, Россия","{'district': 'Чернево', 'lat': 55.5379298, 'lon': 37.5115268}",Чернево,55.5379298,37.5115268
500000,"Академика Волгина, 2",Москва,6666,75,Универсальное помещение,https://msk.n1.ru/view/113126701/?open_card_kn,"Академика Волгина, 2, Москва, Россия","{'district': 'Обручевский район', 'lat': 55.6563507, 'lon': 37.523328}",Обручевский район,55.6563507,37.523328
40000,"Каховка, 27",Москва,4597,8,Универсальное помещение,https://msk.n1.ru/view/112067927/?open_card_kn,"Каховка, 27, Москва, Россия","{'district': 'район Зюзино', 'lat': 55.6553749, 'lon': 37.5720678}",район Зюзино,55.6553749,37.5720678
270000,"Квесисская 2-я, 23",Москва,1350,200,Универсальное помещение,https://msk.n1.ru/view/77744723/?open_card_kn,"Квесисская 2-я, 23, Москва, Россия","{'district': 'Савёловский район', 'lat': 55.7954549, 'lon': 37.5833095}",Савёловский район,55.7954549,37.5833095
190000,"Нагатинская набережная, 10а",Москва,2638,72,Универсальное помещение,https://msk.n1.ru/view/115634209/?open_card_kn,"Нагатинская набережная, 10а, Москва, Россия","{'district': 'район Нагатино-Садовники', 'lat': 55.6823842, 'lon': 37.6375852}",район Нагатино-Садовники,55.6823842,37.6375852
160000,"Нагатинская набережная, 10а",Москва,2857,56,Универсальное помещение,https://msk.n1.ru/view/115634208/?open_card_kn,"Нагатинская набережная, 10а, Москва, Россия","{'district': 'район Нагатино-Садовники', 'lat': 55.6823842, 'lon': 37.6375852}",район Нагатино-Садовники,55.6823842,37.6375852
330000,"Ивана Франко, 38 корп. 1",Москва,2088,158,Универсальное помещение,https://msk.n1.ru/view/116327526/?open_card_kn,"Ивана Франко, 38 корп. 1, Москва, Россия","{'district': 'район Фили-Давыдково', 'lat': 55.7296031, 'lon': 37.4645843}",район Фили-Давыдково,55.7296031,37.4645843
110000,"Рождественский бульвар, 9 ст1",Москва,6875,16,Универсальное помещение,https://msk.n1.ru/view/77730115/?open_card_kn,"Рождественский бульвар, 9 ст1, Москва, Россия","{'district': 'Мещанский район', 'lat': 55.7667763, 'lon': 37.6307948}",Мещанский район,55.7667763,37.6307948
199449,"Липовый Парк, 8 корп. 2",Москва,1494,133,Универсальное помещение,https://msk.n1.ru/view/115990189/?open_card_kn,"Липовый Парк, 8 корп. 2, Москва, Россия","{'district': 'Жилой комплекс «Москва А101»', 'lat': 55.5696317, 'lon': 37.4910254}",Жилой комплекс «Москва А101»,55.5696317,37.4910254
533250,"Михневская, 8",Москва,1250,426,Универсальное помещение,https://msk.n1.ru/view/109522944/?open_card_kn,"Михневская, 8, Москва, Россия","{'district': 'район Бирюлёво Восточное', 'lat': 55.5800752, 'lon': 37.6724181}",район Бирюлёво Восточное,55.5800752,37.6724181
460000,"Научный проезд, 17",Москва,1666,276,Универсальное помещение,https://msk.n1.ru/view/113514950/?open_card_kn,"Научный проезд, 17, Москва, Россия","{'district': 'район Черёмушки', 'lat': 55.6541476, 'lon': 37.5559185}",район Черёмушки,55.6541476,37.5559185
220000,"Варшавское шоссе, 284 корп. 1",Москва,1506,146,Универсальное помещение,https://msk.n1.ru/view/113862974/?open_card_kn,"Варшавское шоссе, 284 корп. 1, Москва, Россия","{'district': 'Нагорный район', 'lat': 55.668616, 'lon': 37.62426}",Нагорный район,55.668616,37.62426
3600000,"Летниковская, 10 ст4",Москва,6326,569,Универсальное помещение,https://msk.n1.ru/view/115988990/?open_card_kn,"Летниковская, 10 ст4, Москва, Россия","{'district': 'Даниловский район', 'lat': 55.7259127, 'lon': 37.6444305}",Даниловский район,55.7259127,37.6444305
3010400,"Рыбинская 1-я, 1",Москва,1696,1775,Универсальное помещение,https://msk.n1.ru/view/106928809/?open_card_kn,"Рыбинская 1-я, 1, Москва, Россия","{'district': 'район Сокольники', 'lat': 55.7899338, 'lon': 37.661802}",район Сокольники,55.7899338,37.661802
500000,"Таганская, 1 ст1",Москва,6385,78,Универсальное помещение,https://msk.n1.ru/view/115988848/?open_card_kn,"Таганская, 1 ст1, Москва, Россия","{'district': 'Таганский район', 'lat': 55.7409704, 'lon': 37.6543835}",Таганский район,55.7409704,37.6543835
400000,"Серпуховская Б., 8/7 ст2",Москва,8658,46,Универсальное помещение,https://msk.n1.ru/view/115988849/?open_card_kn,"Серпуховская Б., 8/7 ст2, Москва, Россия","{'district': 'Адрес не найден', 'lat': None, 'lon': None}",Адрес не найден,,
370000,"Маршала Бирюзова, 17 корп. 1 ст2",Москва,21022,17,Универсальное помещение,https://msk.n1.ru/view/115988847/?open_card_kn,"Маршала Бирюзова, 17 корп. 1 ст2, Москва, Россия","{'district': 'район Щукино', 'lat': 55.7934439, 'lon': 37.4937681}",район Щукино,55.7934439,37.4937681
690000,"Лубянский проезд, 7 ст1",Москва,3450,200,Универсальное помещение,https://msk.n1.ru/view/114950279/?open_card_kn,"Лубянский проезд, 7 ст1, Москва, Россия","{'district': 'Басманный район', 'lat': 55.7582266, 'lon': 37.6297035}",Басманный район,55.7582266,37.6297035
1260750,"Флотская, 5а",Москва,1500,840,Универсальное помещение,https://msk.n1.ru/view/114562867/?open_card_kn,"Флотская, 5а, Москва, Россия","{'district': 'Головинский район', 'lat': 55.8503112, 'lon': 37.4846274}",Головинский район,55.8503112,37.4846274
150000,"Волгоградский проспект, 32/5 корп. 2",Москва,4054,37,Универсальное помещение,https://msk.n1.ru/view/115632306/?open_card_kn,"Волгоградский проспект, 32/5 корп. 2, Москва, Россия","{'district': 'район Кузьминки', 'lat': 55.7041824, 'lon': 37.7724622}",район Кузьминки,55.7041824,37.7724622
621000,"Пяловская, 1",Москва,1350,460,Универсальное помещение,https://msk.n1.ru/view/113514738/?open_card_kn,"Пяловская, 1, Москва, Россия","{'district': 'район Западное Дегунино', 'lat': 55.8621739, 'lon': 37.5362182}",район Западное Дегунино,55.8621739,37.5362182
2549600,"Семеновская площадь, 7 корп. 17",Москва,4000,637,Универсальное помещение,https://msk.n1.ru/view/114562858/?open_card_kn,"Семеновская площадь, 7 корп. 17, Москва, Россия","{'district': 'Адрес не найден', 'lat': None, 'lon': None}",Адрес не найден,,
1440000,"Тюменская, 5 ст15",Москва,2400,600,Универсальное помещение,https://msk.n1.ru/view/115988835/?open_card_kn,"Тюменская, 5 ст15, Москва, Россия","{'district': 'Черкизово', 'lat': 55.8084896, 'lon': 37.7295176}",Черкизово,55.8084896,37.7295176
109980,"Почтовая Б., 71",Москва,5983,18,Универсальное помещение,https://msk.n1.ru/view/113514333/?open_card_kn,"Почтовая Б., 71, Москва, Россия","{'district': 'Бауманка', 'lat': 55.777792, 'lon': 37.6958026}",Бауманка,55.777792,37.6958026
75000,"Нахимовский проспект, 11 корп. 1",Москва,334,224,Универсальное помещение,https://msk.n1.ru/view/113514334/?open_card_kn,"Нахимовский проспект, 11 корп. 1, Москва, Россия","{'district': 'Нагорный район', 'lat': 55.6629554, 'lon': 37.6211711}",Нагорный район,55.6629554,37.6211711
925000,"Павелецкая набережная, 2 ст18",Москва,1850,500,Универсальное помещение,https://msk.n1.ru/view/107452960/?open_card_kn,"Павелецкая набережная, 2 ст18, Москва, Россия","{'district': 'Даниловский район', 'lat': 55.7115813, 'lon': 37.6485724}",Даниловский район,55.7115813,37.6485724
105000,"Эдварда Грига, 17",Москва,1810,58,Универсальное помещение,https://msk.n1.ru/view/115631938/?open_card_kn,"Эдварда Грига, 17, Москва, Россия","{'district': 'Скандинавия', 'lat': 55.5550844, 'lon': 37.506994}",Скандинавия,55.5550844,37.506994
350000,"проспект Прокшинский, 7",Москва,3398,103,Универсальное помещение,https://msk.n1.ru/view/115631937/?open_card_kn,"проспект Прокшинский, 7, Москва, Россия","{'district': 'Жилой комплекс «Прокшино»', 'lat': 55.5925752, 'lon': 37.4327039}",Жилой комплекс «Прокшино»,55.5925752,37.4327039
220000,"Краснобогатырская, 36",Москва,3333,66,Универсальное помещение,https://msk.n1.ru/view/116325895/?open_card_kn,"Краснобогатырская, 36, Москва, Россия","{'district': 'район Богородское', 'lat': 55.8110096, 'lon': 37.7009254}",район Богородское,55.8110096,37.7009254
118000,"Калужская М., 15 ст16",Москва,2226,53,Универсальное помещение,https://msk.n1.ru/view/116325894/?open_card_kn,"Калужская М., 15 ст16, Москва, Россия","{'district': 'Донской район', 'lat': 55.7148642, 'lon': 37.5947272}",Донской район,55.7148642,37.5947272
1500000,"Енисейская, 29",Москва,3932,381,Универсальное помещение,https://msk.n1.ru/view/116325829/?open_card_kn,"Енисейская, 29, Москва, Россия","{'district': 'Бабушкинский район', 'lat': 55.8729091, 'lon': 37.664597}",Бабушкинский район,55.8729091,37.664597
70000,"Пестеля, 6",Москва,3684,19,Универсальное помещение,https://msk.n1.ru/view/116325647/?open_card_kn,"Пестеля, 6, Москва, Россия","{'district': 'район Отрадное', 'lat': 55.8648022, 'lon': 37.6153856}",район Отрадное,55.8648022,37.6153856
274999,"Садовая-Самотечная, 13 ст1",Москва,1833,150,Универсальное помещение,https://msk.n1.ru/view/115985747/?open_card_kn,"Садовая-Самотечная, 13 ст1, Москва, Россия","{'district': 'Тверской район', 'lat': 55.7737023, 'lon': 37.6157646}",Тверской район,55.7737023,37.6157646
429500,"Каширское шоссе, 14",Москва,1000,429,Универсальное помещение,https://msk.n1.ru/view/115985727/?open_card_kn,"Каширское шоссе, 14, Москва, Россия","{'district': 'район Москворечье-Сабурово', 'lat': 55.6506482, 'lon': 37.6677902}",район Москворечье-Сабурово,55.6506482,37.6677902
1005200,"Митинская, 15",Москва,1400,718,Универсальное помещение,https://msk.n1.ru/view/115985705/?open_card_kn,"Митинская, 15, Москва, Россия","{'district': 'район Митино', 'lat': 55.8417398, 'lon': 37.370145}",район Митино,55.8417398,37.370145
196125,"Саввинский Б. переулок, 9 ст3",Москва,3208,61,Универсальное помещение,https://msk.n1.ru/view/115985704/?open_card_kn,"Саввинский Б. переулок, 9 ст3, Москва, Россия","{'district': 'Адрес не найден', 'lat': None, 'lon': None}",Адрес не найден,,
399000,"Днепропетровская, 2",Москва,1662,240,Универсальное помещение,https://msk.n1.ru/view/115985701/?open_card_kn,"Днепропетровская, 2, Москва, Россия","{'district': 'район Чертаново Северное', 'lat': 55.6229745, 'lon': 37.6040459}",район Чертаново Северное,55.6229745,37.6040459
1200000,"Мясницкая, 13 ст20",Москва,7384,162,Универсальное помещение,https://msk.n1.ru/view/115985699/?open_card_kn,"Мясницкая, 13 ст20, Москва, Россия","{'district': 'Красносельский район', 'lat': 55.7658791, 'lon': 37.6391539}",Красносельский район,55.7658791,37.6391539
600000,"Машкова, 13 ст1",Москва,5504,109,Универсальное помещение,https://msk.n1.ru/view/115985698/?open_card_kn,"Машкова, 13 ст1, Москва, Россия","{'district': 'Басманный район', 'lat': 55.7637776, 'lon': 37.6517359}",Басманный район,55.7637776,37.6517359
285300,"Ленинский проспект, 35",Москва,4500,63,Универсальное помещение,https://msk.n1.ru/view/115985685/?open_card_kn,"Ленинский проспект, 35, Москва, Россия","{'district': 'Донской район', 'lat': 55.711377, 'lon': 37.5870914}",Донской район,55.711377,37.5870914
250000,"Бажова, 17 ст6",Москва,1000,250,Универсальное помещение,https://msk.n1.ru/view/115985677/?open_card_kn,"Бажова, 17 ст6, Москва, Россия","{'district': 'район Ростокино', 'lat': 55.8359775, 'lon': 37.6638729}",район Ростокино,55.8359775,37.6638729
1000000,"Петровка, 19 ст1",Москва,22727,44,Универсальное помещение,https://msk.n1.ru/view/115985673/?open_card_kn,"Петровка, 19 ст1, Москва, Россия","{'district': 'Тверской район', 'lat': 55.7673436, 'lon': 37.6142133}",Тверской район,55.7673436,37.6142133
408000,"проспект Магеллана, 5",Москва,1700,240,Универсальное помещение,https://msk.n1.ru/view/115985455/?open_card_kn,"проспект Магеллана, 5, Москва, Россия","{'district': 'Жилой комплекс «Испанские кварталы»', 'lat': 55.5895451, 'lon': 37.4433196}",Жилой комплекс «Испанские кварталы»,55.5895451,37.4433196
10725833,"Чаплыгина, 11",Москва,5083,2110,Универсальное помещение,https://msk.n1.ru/view/115985428/?open_card_kn,"Чаплыгина, 11, Москва, Россия","{'district': 'Басманный район', 'lat': 55.7628104, 'lon': 37.6484506}",Басманный район,55.7628104,37.6484506
238900,"26-ти Бакинских Комиссаров, 6",Москва,2317,103,Универсальное помещение,https://msk.n1.ru/view/115985418/?open_card_kn,"26-ти Бакинских Комиссаров, 6, Москва, Россия","{'district': 'Тропарёво-Никулино', 'lat': 55.6588127, 'lon': 37.4930509}",Тропарёво-Никулино,55.6588127,37.4930509
445469,"Пятницкое шоссе, 43 корп. 2",Москва,2241,198,Универсальное помещение,https://msk.n1.ru/view/115985409/?open_card_kn,"Пятницкое шоссе, 43 корп. 2, Москва, Россия","{'district': 'район Митино', 'lat': 55.8626656, 'lon': 37.3465126}",район Митино,55.8626656,37.3465126
1962468,"Подсосенский переулок, 23 ст6",Москва,2916,673,Универсальное помещение,https://msk.n1.ru/view/115985389/?open_card_kn,"Подсосенский переулок, 23 ст6, Москва, Россия","{'district': 'Басманный район', 'lat': 55.7575321, 'lon': 37.6513646}",Басманный район,55.7575321,37.6513646
237300,"Каширское шоссе, 14",Москва,1500,158,Универсальное помещение,https://msk.n1.ru/view/115985163/?open_card_kn,"Каширское шоссе, 14, Москва, Россия","{'district': 'район Москворечье-Сабурово', 'lat': 55.6506482, 'lon': 37.6677902}",район Москворечье-Сабурово,55.6506482,37.6677902
841500,"Романов переулок, 4",Москва,5500,153,Универсальное помещение,https://msk.n1.ru/view/115985158/?open_card_kn,"Романов переулок, 4, Москва, Россия","{'district': 'район Арбат', 'lat': 55.754143, 'lon': 37.6095016}",район Арбат,55.754143,37.6095016
390000,"Фридриха Энгельса, 23 ст1",Москва,5111,76,Универсальное помещение,https://msk.n1.ru/view/115985118/?open_card_kn,"Фридриха Энгельса, 23 ст1, Москва, Россия","{'district': 'Бауманка', 'lat': 55.7767788, 'lon': 37.690746}",Бауманка,55.7767788,37.690746
180000,"Цветной бульвар, 28 ст1",Москва,2627,68,Универсальное помещение,https://msk.n1.ru/view/114560738/?open_card_kn,"Цветной бульвар, 28 ст1, Москва, Россия","{'district': 'Мещанский район', 'lat': 55.7709513, 'lon': 37.6210644}",Мещанский район,55.7709513,37.6210644
600000,"Авиаконструктора Микояна, 14 корп. 1",Москва,4195,143,Универсальное помещение,https://msk.n1.ru/view/97142600/?open_card_kn,"Авиаконструктора Микояна, 14 корп. 1, Москва, Россия","{'district': 'Хорошёвский район', 'lat': 55.7916339, 'lon': 37.5327019}",Хорошёвский район,55.7916339,37.5327019
78000,"Мусы Джалиля, 42 корп. 1",Москва,1300,60,Универсальное помещение,https://msk.n1.ru/view/115277274/?open_card_kn,"Мусы Джалиля, 42 корп. 1, Москва, Россия","{'district': 'район Зябликово', 'lat': 55.6305082, 'lon': 37.7484963}",район Зябликово,55.6305082,37.7484963
252500,"Юрловский проезд, 2 ст1",Москва,747,338,Универсальное помещение,https://msk.n1.ru/view/115630221/?open_card_kn,"Юрловский проезд, 2 ст1, Москва, Россия","{'district': 'район Отрадное', 'lat': 55.8687999, 'lon': 37.6223159}",район Отрадное,55.8687999,37.6223159
180000,"Открытое шоссе, 30",Москва,2195,82,Универсальное помещение,https://msk.n1.ru/view/115629886/?open_card_kn,"Открытое шоссе, 30, Москва, Россия","{'district': 'район Метрогородок', 'lat': 55.828125, 'lon': 37.7702433}",район Метрогородок,55.828125,37.7702433
920000,"Хорошевское шоссе, 25а корп. 1",Москва,4600,200,Универсальное помещение,https://msk.n1.ru/view/115629885/?open_card_kn,"Хорошевское шоссе, 25а корп. 1, Москва, Россия","{'district': 'Хорошёвский район', 'lat': 55.7775281, 'lon': 37.5147099}",Хорошёвский район,55.7775281,37.5147099
80000,"Зыковский Нов. проезд, 3",Москва,3809,21,Универсальное помещение,https://msk.n1.ru/view/115629852/?open_card_kn,"Зыковский Нов. проезд, 3, Москва, Россия","{'district': 'Адрес не найден', 'lat': None, 'lon': None}",Адрес не найден,,
420000,"Варшавское шоссе, 129 корп. 2",Москва,1826,230,Универсальное помещение,https://msk.n1.ru/view/115629668/?open_card_kn,"Варшавское шоссе, 129 корп. 2, Москва, Россия","{'district': 'Нагорный район', 'lat': 55.668616, 'lon': 37.62426}",Нагорный район,55.668616,37.62426
16250,"Ясеневая, 26",Москва,1084,15,Универсальное помещение,https://msk.n1.ru/view/115629657/?open_card_kn,"Ясеневая, 26, Москва, Россия","{'district': 'район Орехово-Борисово Южное', 'lat': 55.6038377, 'lon': 37.735873}",район Орехово-Борисово Южное,55.6038377,37.735873
1800000,"Красносельская Верхн., 2/1 ст2",Москва,3229,557,Универсальное помещение,https://msk.n1.ru/view/77650089/?open_card_kn,"Красносельская Верхн., 2/1 ст2, Москва, Россия","{'district': 'Адрес не найден', 'lat': None, 'lon': None}",Адрес не найден,,
142000,"Тихая, 18 ст2",Москва,3604,39,Универсальное помещение,https://msk.n1.ru/view/77648697/?open_card_kn,"Тихая, 18 ст2, Москва, Россия","{'district': 'район Люблино', 'lat': 55.6850686, 'lon': 37.7380335}",район Люблино,55.6850686,37.7380335
80000,"Локомотивный проезд, 4",Москва,4324,18,Универсальное помещение,https://msk.n1.ru/view/77647237/?open_card_kn,"Локомотивный проезд, 4, Москва, Россия","{'district': 'Тимирязевский район', 'lat': 55.8380157, 'lon': 37.5768556}",Тимирязевский район,55.8380157,37.5768556
163800,"Никольская, 17 ст1",Москва,2800,58,Универсальное помещение,https://msk.n1.ru/view/77646966/?open_card_kn,"Никольская, 17 ст1, Москва, Россия","{'district': 'Тверской район', 'lat': 55.7570884, 'lon': 37.6223868}",Тверской район,55.7570884,37.6223868
153053,"Правды, 24 ст4",Москва,2024,75,Универсальное помещение,https://msk.n1.ru/view/77642665/?open_card_kn,"Правды, 24 ст4, Москва, Россия","{'district': 'район Беговой', 'lat': 55.7832175, 'lon': 37.5760283}",район Беговой,55.7832175,37.5760283
320000,"Профсоюзная, 26/44",Москва,13114,24,Универсальное помещение,https://msk.n1.ru/view/77642500/?open_card_kn,"Профсоюзная, 26/44, Москва, Россия","{'district': 'Академический район', 'lat': 55.6789301, 'lon': 37.5632189}",Академический район,55.6789301,37.5632189
341250,"Мастеркова, 4",Москва,2275,150,Универсальное помещение,https://msk.n1.ru/view/116324868/?open_card_kn,"Мастеркова, 4, Москва, Россия","{'district': 'Даниловский район', 'lat': 55.7086926, 'lon': 37.6561313}",Даниловский район,55.7086926,37.6561313
120000,"Суздальская, 12 корп. 4",Москва,1085,110,Универсальное помещение,https://msk.n1.ru/view/77635675/?open_card_kn,"Суздальская, 12 корп. 4, Москва, Россия","{'district': 'район Новокосино', 'lat': 55.7433364, 'lon': 37.8522634}",район Новокосино,55.7433364,37.8522634
125000,"Хвостов 1-й переулок, 3а ст2",Москва,6906,18,Универсальное помещение,https://msk.n1.ru/view/116324799/?open_card_kn,"Хвостов 1-й переулок, 3а ст2, Москва, Россия","{'district': 'Адрес не найден', 'lat': None, 'lon': None}",Адрес не найден,,
75000000,"Петровка, 10",Москва,4724,15875,Универсальное помещение,https://msk.n1.ru/view/77626314/?open_card_kn,"Петровка, 10, Москва, Россия","{'district': 'Тверской район', 'lat': 55.7625623, 'lon': 37.6180753}",Тверской район,55.7625623,37.6180753
179000,"Алабяна, 3 корп. 1",Москва,1000,179,Универсальное помещение,https://msk.n1.ru/view/77617943/?open_card_kn,"Алабяна, 3 корп. 1, Москва, Россия","{'district': 'район Сокол', 'lat': 55.8030187, 'lon': 37.508646}",район Сокол,55.8030187,37.508646
60000,"Ленинградское шоссе, 3 ст1",Москва,2790,21,Универсальное помещение,https://msk.n1.ru/view/77616303/?open_card_kn,"Ленинградское шоссе, 3 ст1, Москва, Россия","{'district': 'Молжаниновский район', 'lat': 55.931389, 'lon': 37.3775133}",Молжаниновский район,55.931389,37.3775133
121834,"Дворникова, 7",Москва,1417,86,Универсальное помещение,https://msk.n1.ru/view/77603056/?open_card_kn,"Дворникова, 7, Москва, Россия","{'district': 'район Лефортово', 'lat': 55.7625141, 'lon': 37.7194497}",район Лефортово,55.7625141,37.7194497
63334,"Дворникова, 7",Москва,1584,40,Универсальное помещение,https://msk.n1.ru/view/77597119/?open_card_kn,"Дворникова, 7, Москва, Россия","{'district': 'район Лефортово', 'lat': 55.7625141, 'lon': 37.7194497}",район Лефортово,55.7625141,37.7194497
679233,"Флотская, 5",Москва,1166,582,Универсальное помещение,https://msk.n1.ru/view/77595748/?open_card_kn,"Флотская, 5, Москва, Россия","{'district': 'район Левобережный', 'lat': 55.8512913, 'lon': 37.4910918}",район Левобережный,55.8512913,37.4910918
380000,"Тверская-Ямская 4-Я, 26/8",Москва,3273,116,Универсальное помещение,https://msk.n1.ru/view/116324666/?open_card_kn,"Тверская-Ямская 4-Я, 26/8, Москва, Россия","{'district': 'Тверской район', 'lat': 55.7748132, 'lon': 37.5939904}",Тверской район,55.7748132,37.5939904
801210,"Зои и Александра Космодемьянских, 7а",Москва,2917,274,Универсальное помещение,https://msk.n1.ru/view/77591921/?open_card_kn,"Зои и Александра Космодемьянских, 7а, Москва, Россия","{'district': 'Войковский район', 'lat': 55.82145, 'lon': 37.509359}",Войковский район,55.82145,37.509359
1700000,"Новинский бульвар, 15",Москва,3637,467,Универсальное помещение,https://msk.n1.ru/view/77591822/?open_card_kn,"Новинский бульвар, 15, Москва, Россия","{'district': 'район Арбат', 'lat': 55.7544857, 'lon': 37.5827271}",район Арбат,55.7544857,37.5827271
659750,"Мастеркова, 4",Москва,2275,290,Универсальное помещение,https://msk.n1.ru/view/116324631/?open_card_kn,"Мастеркова, 4, Москва, Россия","{'district': 'Даниловский район', 'lat': 55.7086926, 'lon': 37.6561313}",Даниловский район,55.7086926,37.6561313
520000,"Ленинградский проспект, 67 корп. 1",Москва,6341,82,Универсальное помещение,https://msk.n1.ru/view/77585616/?open_card_kn,"Ленинградский проспект, 67 корп. 1, Москва, Россия","{'district': 'район Беговой', 'lat': 55.7801228, 'lon': 37.5775666}",район Беговой,55.7801228,37.5775666
97200,"Дмитровское шоссе, 122г корп. 1",Москва,1197,81,Универсальное помещение,https://msk.n1.ru/view/77585374/?open_card_kn,"Дмитровское шоссе, 122г корп. 1, Москва, Россия","{'district': 'район Северный', 'lat': 55.9097516, 'lon': 37.5439581}",район Северный,55.9097516,37.5439581
500000,"Смольная, 14",Москва,1960,255,Универсальное помещение,https://msk.n1.ru/view/77585017/?open_card_kn,"Смольная, 14, Москва, Россия","{'district': 'Головинский район', 'lat': 55.8509018, 'lon': 37.4954099}",Головинский район,55.8509018,37.4954099
250000,"Мастеркова, 4",Москва,2500,100,Универсальное помещение,https://msk.n1.ru/view/116324527/?open_card_kn,"Мастеркова, 4, Москва, Россия","{'district': 'Даниловский район', 'lat': 55.7086926, 'lon': 37.6561313}",Даниловский район,55.7086926,37.6561313
200000,"Долгопрудная аллея, 14 корп. 4",Москва,1886,106,Универсальное помещение,https://msk.n1.ru/view/77577906/?open_card_kn,"Долгопрудная аллея, 14 корп. 4, Москва, Россия","{'district': 'район Северный', 'lat': 55.9418858, 'lon': 37.5352591}",район Северный,55.9418858,37.5352591
610500,"Алабяна, 3 корп. 1",Москва,1499,407,Универсальное помещение,https://msk.n1.ru/view/77572690/?open_card_kn,"Алабяна, 3 корп. 1, Москва, Россия","{'district': 'район Сокол', 'lat': 55.8030187, 'lon': 37.508646}",район Сокол,55.8030187,37.508646
240000,"Октябрьская, 58",Москва,1538,156,Универсальное помещение,https://msk.n1.ru/view/77572497/?open_card_kn,"Октябрьская, 58, Москва, Россия","{'district': 'район Марьина Роща', 'lat': 55.7948354, 'lon': 37.6133911}",район Марьина Роща,55.7948354,37.6133911
340000,"Варшавское шоссе, 282 корп. 2",Москва,3035,112,Универсальное помещение,https://msk.n1.ru/view/77569931/?open_card_kn,"Варшавское шоссе, 282 корп. 2, Москва, Россия","{'district': 'Нагорный район', 'lat': 55.668616, 'lon': 37.62426}",Нагорный район,55.668616,37.62426
5000000,"Академика Варги, 8 корп. 1",Москва,2000,2500,Универсальное помещение,https://msk.n1.ru/view/77556468/?open_card_kn,"Академика Варги, 8 корп. 1, Москва, Россия","{'district': 'район Тёплый Стан', 'lat': 55.6348586, 'lon': 37.4747484}",район Тёплый Стан,55.6348586,37.4747484
194000,"Рублевское шоссе, 48/1",Москва,5243,37,Универсальное помещение,https://msk.n1.ru/view/77555349/?open_card_kn,"Рублевское шоссе, 48/1, Москва, Россия","{'district': 'район Крылатское', 'lat': 55.7541813, 'lon': 37.4070641}",район Крылатское,55.7541813,37.4070641
80000,"Грина, 11б",Москва,1600,50,Универсальное помещение,https://msk.n1.ru/view/77548841/?open_card_kn,"Грина, 11б, Москва, Россия","{'district': 'район Северное Бутово', 'lat': 55.5668677, 'lon': 37.5666595}",район Северное Бутово,55.5668677,37.5666595
72000,"Авангардная, 3",Москва,1756,41,Универсальное помещение,https://msk.n1.ru/view/77547524/?open_card_kn,"Авангардная, 3, Москва, Россия","{'district': 'Головинский район', 'lat': 55.8431225, 'lon': 37.4910612}",Головинский район,55.8431225,37.4910612
7500,"Маршала Жукова проспект, 37 корп. 2",Москва,1500,5,Универсальное помещение,https://msk.n1.ru/view/77547093/?open_card_kn,"Маршала Жукова проспект, 37 корп. 2, Москва, Россия","{'district': 'район Хорошёво-Мнёвники', 'lat': 55.7761083, 'lon': 37.4728302}",район Хорошёво-Мнёвники,55.7761083,37.4728302
390000,"Павелецкая набережная, 8б",Москва,6000,65,Универсальное помещение,https://msk.n1.ru/view/77547092/?open_card_kn,"Павелецкая набережная, 8б, Москва, Россия","{'district': 'Даниловский район', 'lat': 55.7094512, 'lon': 37.6462665}",Даниловский район,55.7094512,37.6462665
290000,"Аминьевское шоссе, 4 корп. 3 дб",Москва,3152,92,Универсальное помещение,https://msk.n1.ru/view/77546621/?open_card_kn,"Аминьевское шоссе, 4 корп. 3 дб, Москва, Россия","{'district': 'Можайский район', 'lat': 55.7210534, 'lon': 37.4499107}",Можайский район,55.7210534,37.4499107
1300000,"Щербаковская, 57/20",Москва,1283,1013,Универсальное помещение,https://msk.n1.ru/view/77542399/?open_card_kn,"Щербаковская, 57/20, Москва, Россия","{'district': 'район Соколиная Гора', 'lat': 55.7839129, 'lon': 37.7420689}",район Соколиная Гора,55.7839129,37.7420689
5647208,"Сретенский тупик, 4",Москва,2667,2117,Универсальное помещение,https://msk.n1.ru/view/77541922/?open_card_kn,"Сретенский тупик, 4, Москва, Россия","{'district': 'Красносельский район', 'lat': 55.7711381, 'lon': 37.6334927}",Красносельский район,55.7711381,37.6334927
250000,"Новослободская, 19 ст1",Москва,15723,15,Универсальное помещение,https://msk.n1.ru/view/77536623/?open_card_kn,"Новослободская, 19 ст1, Москва, Россия","{'district': 'Тверской район', 'lat': 55.7815262, 'lon': 37.5989214}",Тверской район,55.7815262,37.5989214
400000,"Борисовские Пруды, 26",Москва,2043,195,Универсальное помещение,https://msk.n1.ru/view/77536566/?open_card_kn,"Борисовские Пруды, 26, Москва, Россия","{'district': 'район Братеево', 'lat': 55.6390774, 'lon': 37.7593768}",район Братеево,55.6390774,37.7593768
200000,"Люсиновская, 72",Москва,597,335,Универсальное помещение,https://msk.n1.ru/view/77536087/?open_card_kn,"Люсиновская, 72, Москва, Россия","{'district': 'Даниловский район', 'lat': 55.7136208, 'lon': 37.6218823}",Даниловский район,55.7136208,37.6218823
149317,"Михневская, 8",Москва,1416,105,Универсальное помещение,https://msk.n1.ru/view/77535593/?open_card_kn,"Михневская, 8, Москва, Россия","{'district': 'район Бирюлёво Восточное', 'lat': 55.5800752, 'lon': 37.6724181}",район Бирюлёво Восточное,55.5800752,37.6724181
360000,"Профсоюзная, 118",Москва,2627,137,Универсальное помещение,https://msk.n1.ru/view/77535084/?open_card_kn,"Профсоюзная, 118, Москва, Россия","{'district': 'район Коньково', 'lat': 55.6363391, 'lon': 37.5211351}",район Коньково,55.6363391,37.5211351
450000,"Пришвина, 8 корп. 2",Москва,2120,212,Универсальное помещение,https://msk.n1.ru/view/77532216/?open_card_kn,"Пришвина, 8 корп. 2, Москва, Россия","{'district': 'район Бибирево', 'lat': 55.8851746, 'lon': 37.6043543}",район Бибирево,55.8851746,37.6043543
40000,"Новинский бульвар, 12",Москва,2500,16,Универсальное помещение,https://msk.n1.ru/view/106922366/?open_card_kn,"Новинский бульвар, 12, Москва, Россия","{'district': 'район Арбат', 'lat': 55.7532207, 'lon': 37.5841551}",район Арбат,55.7532207,37.5841551
536000,"Шлюзовая набережная, 8 ст1",Москва,3329,161,Универсальное помещение,https://msk.n1.ru/view/77530465/?open_card_kn,"Шлюзовая набережная, 8 ст1, Москва, Россия","{'district': 'район Замоскворечье', 'lat': 55.7299555, 'lon': 37.6504931}",район Замоскворечье,55.7299555,37.6504931
373750,"Ротмистрова, 2 корп. 3",Москва,5416,69,Универсальное помещение,https://msk.n1.ru/view/114556520/?open_card_kn,"Ротмистрова, 2 корп. 3, Москва, Россия","{'district': 'район Щукино', 'lat': 55.79125, 'lon': 37.4777253}",район Щукино,55.79125,37.4777253
378083,"Ротмистрова, 2 корп. 3",Москва,5416,69,Универсальное помещение,https://msk.n1.ru/view/114556515/?open_card_kn,"Ротмистрова, 2 корп. 3, Москва, Россия","{'district': 'район Щукино', 'lat': 55.79125, 'lon': 37.4777253}",район Щукино,55.79125,37.4777253
519000,"Народного Ополчения, 13",Москва,3750,138,Универсальное помещение,https://msk.n1.ru/view/114556511/?open_card_kn,"Народного Ополчения, 13, Москва, Россия","{'district': 'район Хорошёво-Мнёвники', 'lat': 55.7729915, 'lon': 37.4727132}",район Хорошёво-Мнёвники,55.7729915,37.4727132
439875,"Народного Ополчения, 13",Москва,3750,117,Универсальное помещение,https://msk.n1.ru/view/114556509/?open_card_kn,"Народного Ополчения, 13, Москва, Россия","{'district': 'район Хорошёво-Мнёвники', 'lat': 55.7729915, 'lon': 37.4727132}",район Хорошёво-Мнёвники,55.7729915,37.4727132
778400,"Тимирязевская, 1а",Москва,1250,622,Универсальное помещение,https://msk.n1.ru/view/77528231/?open_card_kn,"Тимирязевская, 1а, Москва, Россия","{'district': 'Тимирязевский район', 'lat': 55.807452, 'lon': 37.5684029}",Тимирязевский район,55.807452,37.5684029
254625,"Народного Ополчения, 13",Москва,3749,67,Универсальное помещение,https://msk.n1.ru/view/114556406/?open_card_kn,"Народного Ополчения, 13, Москва, Россия","{'district': 'район Хорошёво-Мнёвники', 'lat': 55.7729915, 'lon': 37.4727132}",район Хорошёво-Мнёвники,55.7729915,37.4727132
220000,"Красина, 9 ст2",Москва,2750,80,Универсальное помещение,https://msk.n1.ru/view/114556395/?open_card_kn,"Красина, 9 ст2, Москва, Россия","{'district': 'Пресненский район', 'lat': 55.7685878, 'lon': 37.5866304}",Пресненский район,55.7685878,37.5866304
2087500,"Дмитровское шоссе, 21а",Москва,2500,835,Универсальное помещение,https://msk.n1.ru/view/115627157/?open_card_kn,"Дмитровское шоссе, 21а, Москва, Россия","{'district': 'Тимирязевский район', 'lat': 55.823015, 'lon': 37.5711067}",Тимирязевский район,55.823015,37.5711067
1100000,"Автозаводская, 26/1",Москва,4543,242,Универсальное помещение,https://msk.n1.ru/view/114944982/?open_card_kn,"Автозаводская, 26/1, Москва, Россия","{'district': 'Даниловский район', 'lat': 55.7060684, 'lon': 37.631367}",Даниловский район,55.7060684,37.631367
195000,"Маресьева, 12 корп. 4",Москва,2750,70,Универсальное помещение,https://msk.n1.ru/view/115627052/?open_card_kn,"Маресьева, 12 корп. 4, Москва, Россия","{'district': 'район Некрасовка', 'lat': 55.7071988, 'lon': 37.9311312}",район Некрасовка,55.7071988,37.9311312
